[{"name": "ESTACIÓN-EST.ARANJUEZ", "lat": 40.0345268249512, "lng": -3.61783719062805, "feed": "mdb-791"}, {"name": "GOBERNADOR-MERCADO DE ABASTOS", "lat": 40.0326385498047, "lng": -3.60506820678711, "feed": "mdb-791"}, {"name": "ABASTOS-FLORIDA", "lat": 40.0320510864258, "lng": -3.60703206062317, "feed": "mdb-791"}, {"name": "GOBERNADOR-VALERAS", "lat": 40.032772064209, "lng": -3.60856199264526, "feed": "mdb-791"}, {"name": "ABASTOS-AYUNTAMIENTO", "lat": 40.0319328308105, "lng": -3.60386633872986, "feed": "mdb-791"}, {"name": "GTA.NUEVO ARANJUEZ-CUARTELES", "lat": 40.0324363708496, "lng": -3.5931932926178, "feed": "mdb-791"}, {"name": "REY-AUDITORIO", "lat": 40.0323905944824, "lng": -3.60051822662354, "feed": "mdb-791"}, {"name": "FOSO-GOBERNADOR", "lat": 40.0323944091797, "lng": -3.59809231758118, "feed": "mdb-791"}, {"name": "FOSO-INFANTAS", "lat": 40.0333786010742, "lng": -3.59798359870911, "feed": "mdb-791"}, {"name": "PRÍNCIPE-IGLESIA", "lat": 40.0357513427734, "lng": -3.59848499298096, "feed": "mdb-791"}, {"name": "MORERAS-LA BARRACA DE FEDERICO GªLORCA", "lat": 40.0354804992676, "lng": -3.59678292274475, "feed": "mdb-791"}, {"name": "MORERAS-ANCHA", "lat": 40.035457611084, "lng": -3.59477853775024, "feed": "mdb-791"}, {"name": "MORERAS-PRIMERO DE MAYO", "lat": 40.035213470459, "lng": -3.59281897544861, "feed": "mdb-791"}, {"name": "MORERAS-PRIMERO DE MAYO", "lat": 40.0353126525879, "lng": -3.59279632568359, "feed": "mdb-791"}, {"name": "MORERAS-COLEGIO", "lat": 40.0349349975586, "lng": -3.58926510810852, "feed": "mdb-791"}, {"name": "PRIMERO DE MAYO-POLIDEPORTIVO", "lat": 40.0340003967285, "lng": -3.59256219863892, "feed": "mdb-791"}, {"name": "ABASTOS-CONCHA", "lat": 40.0317115783691, "lng": -3.60102796554565, "feed": "mdb-791"}, {"name": "MORERAS-AUGUSTO MORENO", "lat": 40.0346069335938, "lng": -3.584632396698, "feed": "mdb-791"}, {"name": "GOBERNADOR-ALMÍBAR", "lat": 40.0324363708496, "lng": -3.60239410400391, "feed": "mdb-791"}, {"name": "GTA.NUEVO ARANJUEZ-PRIMERO DE MAYO", "lat": 40.0324859619141, "lng": -3.59264302253723, "feed": "mdb-791"}, {"name": "INFANTAS-CAP.ANGOSTO GÓMEZ CASTRILLÓN", "lat": 40.0348091125488, "lng": -3.60132479667664, "feed": "mdb-791"}, {"name": "ALVAREZ DE QUINDOS-CUARTELES", "lat": 40.0328063964844, "lng": -3.58992648124695, "feed": "mdb-791"}, {"name": "ÁLVAREZ DE QUINDOS-CÁNDIDO LÓPEZ Y MALTA", "lat": 40.0346527099609, "lng": -3.58845376968384, "feed": "mdb-791"}, {"name": "CARAMILLAR-NORIA", "lat": 40.0358085632324, "lng": -3.57899308204651, "feed": "mdb-791"}, {"name": "ESTUDIOS CINEMATOGRÁFICOS-MEDIODÍA", "lat": 40.037899017334, "lng": -3.57871770858765, "feed": "mdb-791"}, {"name": "CECILIO LÁZARO-VÍCTIMAS DEL TERRORISMO", "lat": 40.0358238220215, "lng": -3.58082175254822, "feed": "mdb-791"}, {"name": "VALERAS-SAN ANTONIO", "lat": 40.0337181091309, "lng": -3.60868763923645, "feed": "mdb-791"}, {"name": "VALERAS-SAN ANTONIO", "lat": 40.0337829589844, "lng": -3.60854744911194, "feed": "mdb-791"}, {"name": "MORERAS-PºEMILIO GARCÍA GREDIAGA", "lat": 40.0344505310059, "lng": -3.58209943771362, "feed": "mdb-791"}, {"name": "ESCUADRA-POL.IND.PIRELLI", "lat": 40.0313911437988, "lng": -3.61782050132751, "feed": "mdb-791"}, {"name": "ESCUADRA-POL.IND.PIRELLI", "lat": 40.0312004089355, "lng": -3.61763143539429, "feed": "mdb-791"}, {"name": "CUESTA PERDICES-SANTIAGO RUSIÑOL", "lat": 40.0295715332031, "lng": -3.61383104324341, "feed": "mdb-791"}, {"name": "PZA.DOCTOR GLEZ.BUENO-RESIDENCIA", "lat": 40.0369567871094, "lng": -3.59235334396362, "feed": "mdb-791"}, {"name": "CTRA.TOLEDO-CEMENTERIO", "lat": 40.030029296875, "lng": -3.62459421157837, "feed": "mdb-791"}, {"name": "AV.LOYOLA-PZA.MATADERO", "lat": 40.0282897949219, "lng": -3.61279988288879, "feed": "mdb-791"}, {"name": "AV.LOYOLA-PZA.PALOMA", "lat": 40.0281524658203, "lng": -3.614990234375, "feed": "mdb-791"}, {"name": "AV.LOYOLA-VICTORIA KAMHI", "lat": 40.0279731750488, "lng": -3.61784839630127, "feed": "mdb-791"}, {"name": "AV.LOYOLA-FRESNO", "lat": 40.027904510498, "lng": -3.61743760108948, "feed": "mdb-791"}, {"name": "PºDELEITE-PARQUE DE BOMBEROS", "lat": 40.0257797241211, "lng": -3.61242580413818, "feed": "mdb-791"}, {"name": "VALERAS-VERDERÓN", "lat": 40.0312843322754, "lng": -3.60893559455872, "feed": "mdb-791"}, {"name": "VALERAS-SAN PASCUAL", "lat": 40.031681060791, "lng": -3.60876321792603, "feed": "mdb-791"}, {"name": "AV.PLAZA DE TOROS-CONCHA", "lat": 40.0281600952148, "lng": -3.60136032104492, "feed": "mdb-791"}, {"name": "AV.PLAZA DE TOROS-FOSO", "lat": 40.0279846191406, "lng": -3.59899115562439, "feed": "mdb-791"}, {"name": "CºNOBLEJAS-PARQUE POZO DE LA NIEVE", "lat": 40.029052734375, "lng": -3.59614086151123, "feed": "mdb-791"}, {"name": "GTA.NUEVO ARANJUEZ-CUARTELES", "lat": 40.0323295593262, "lng": -3.59323930740356, "feed": "mdb-791"}, {"name": "CUESTA PERDICES-SANTIAGO RUSIÑOL", "lat": 40.0297966003418, "lng": -3.61390328407288, "feed": "mdb-791"}, {"name": "ESCUADRA-POL.IND.PIRELLI", "lat": 40.0328254699707, "lng": -3.61741161346436, "feed": "mdb-791"}, {"name": "PºDELEITE-VALERAS", "lat": 40.0262031555176, "lng": -3.61019134521484, "feed": "mdb-791"}, {"name": "PºDELEITE-VALERAS", "lat": 40.026008605957, "lng": -3.60996675491333, "feed": "mdb-791"}, {"name": "PºDELEITE-FRESNO", "lat": 40.0247611999512, "lng": -3.61753797531128, "feed": "mdb-791"}, {"name": "PºDELEITE-FRESNO", "lat": 40.0245895385742, "lng": -3.61711478233337, "feed": "mdb-791"}, {"name": "VALERAS-BAILÉN", "lat": 40.028751373291, "lng": -3.60899519920349, "feed": "mdb-791"}, {"name": "FLORIDA-MAGNOLIAS", "lat": 40.0297012329102, "lng": -3.60660099983215, "feed": "mdb-791"}, {"name": "CAP.ANGOSTO G.CASTRILLÓN-PLAZA DE TOROS", "lat": 40.0273971557617, "lng": -3.60304117202759, "feed": "mdb-791"}, {"name": "ABASTOS-FOSO", "lat": 40.0316467285156, "lng": -3.59788632392883, "feed": "mdb-791"}, {"name": "ABASTOS-ABDÓN BORDOY", "lat": 40.0307388305664, "lng": -3.59398746490479, "feed": "mdb-791"}, {"name": "JESÚS-SANTA ISABEL", "lat": 40.0317115783691, "lng": -3.59081959724426, "feed": "mdb-791"}, {"name": "CUARTELES-SAN FERNANDO", "lat": 40.0321617126465, "lng": -3.59746909141541, "feed": "mdb-791"}, {"name": "SANTIAGO RUSIÑOL-OROPÉNDOLA", "lat": 40.0315246582031, "lng": -3.61110591888428, "feed": "mdb-791"}, {"name": "JUAN DE HERRERA-FAISANES", "lat": 40.0259742736816, "lng": -3.61952972412109, "feed": "mdb-791"}, {"name": "AV.LOYOLA-JUAN DE HERRERA", "lat": 40.0277290344238, "lng": -3.62007284164429, "feed": "mdb-791"}, {"name": "PºDELEITE-ISIDRO GONZÁLEZ VELÁZQUEZ", "lat": 40.0244979858398, "lng": -3.61975073814392, "feed": "mdb-791"}, {"name": "SANTIAGO RUSIÑOL-COLEGIO", "lat": 40.0308876037598, "lng": -3.61216688156128, "feed": "mdb-791"}, {"name": "FOSO-NUESTRA SRA.AZUCENA", "lat": 40.0290412902832, "lng": -3.59862542152405, "feed": "mdb-791"}, {"name": "AV.PLAZA DE TOROS-FOSO", "lat": 40.0279273986816, "lng": -3.59981107711792, "feed": "mdb-791"}, {"name": "FOSO-SAN PASCUAL", "lat": 40.0308990478516, "lng": -3.59829020500183, "feed": "mdb-791"}, {"name": "VIRGEN DE LAS NIEVES-CºNOBLEJAS", "lat": 40.0304145812988, "lng": -3.59794592857361, "feed": "mdb-791"}, {"name": "CºNOBLEJAS-PZA.NUEVA", "lat": 40.028434753418, "lng": -3.59525656700134, "feed": "mdb-791"}, {"name": "ALHAMBRA DE GRANADA-INSTITUTO", "lat": 40.033618927002, "lng": -3.58401465415955, "feed": "mdb-791"}, {"name": "AV.ARTES-MUDÉJAR DE ARAGÓN", "lat": 40.0316123962402, "lng": -3.58545064926147, "feed": "mdb-791"}, {"name": "AV.ARTES-FLORES", "lat": 40.0299339294434, "lng": -3.58944463729858, "feed": "mdb-791"}, {"name": "AV.ARTES-CRUZ", "lat": 40.0278205871582, "lng": -3.59205174446106, "feed": "mdb-791"}, {"name": "CTRA.ANDALUCÍA-MERCADO DE ABASTOS", "lat": 40.0323143005371, "lng": -3.60519409179688, "feed": "mdb-791"}, {"name": "CTRA.ANDALUCÍA-ROSA", "lat": 40.0302391052246, "lng": -3.60535168647766, "feed": "mdb-791"}, {"name": "PºDELEITE-GTA.LE PECQ", "lat": 40.0267295837402, "lng": -3.60632848739624, "feed": "mdb-791"}, {"name": "CTRA.ANDALUCÍA-AV.PLAZA DE TOROS", "lat": 40.0275459289551, "lng": -3.60557389259338, "feed": "mdb-791"}, {"name": "ANDRÉS MARTÍNEZ-PLAZA DE TOROS", "lat": 40.0271873474121, "lng": -3.60292220115662, "feed": "mdb-791"}, {"name": "MÚSICA-GTA. MÚSICA", "lat": 40.0311241149902, "lng": -3.58748602867126, "feed": "mdb-791"}, {"name": "ÁLVAREZ DE QUINDOS-MORERAS", "lat": 40.0346527099609, "lng": -3.58831310272217, "feed": "mdb-791"}, {"name": "JESÚS-DELICIAS", "lat": 40.030216217041, "lng": -3.59222483634949, "feed": "mdb-791"}, {"name": "CºNOBLEJAS-SAN NICOLÁS", "lat": 40.0279121398926, "lng": -3.59378695487976, "feed": "mdb-791"}, {"name": "JESÚS-CºNOBLEJAS", "lat": 40.0281791687012, "lng": -3.59412932395935, "feed": "mdb-791"}, {"name": "ALMÍBAR-GOBERNADOR", "lat": 40.0321884155273, "lng": -3.602778673172, "feed": "mdb-791"}, {"name": "ALMÍBAR-CALANDRIA", "lat": 40.0291328430176, "lng": -3.60319709777832, "feed": "mdb-791"}, {"name": "CUENCA-CASINO", "lat": 40.0554008483887, "lng": -3.60552740097046, "feed": "mdb-791"}, {"name": "GTA.VALLE DEL LOIRE-AV.AMAZONAS CENTRAL", "lat": 40.056453704834, "lng": -3.59703636169434, "feed": "mdb-791"}, {"name": "SANTIAGO DE COMPOSTELA-PRAGA", "lat": 40.0611190795898, "lng": -3.59933996200562, "feed": "mdb-791"}, {"name": "AV.PAZ DE HIROSIMA-SANTIAGO COMPOSTELA", "lat": 40.0667724609375, "lng": -3.60355234146118, "feed": "mdb-791"}, {"name": "CÓRDOBA-CATEDRAL DE BURGOS", "lat": 40.0643692016602, "lng": -3.60536050796509, "feed": "mdb-791"}, {"name": "PZA.UNESCO-MÉRIDA", "lat": 40.0563545227051, "lng": -3.60607504844666, "feed": "mdb-791"}, {"name": "PATRIMONIO MUNDIAL-CASA MILÁ", "lat": 40.0590515136719, "lng": -3.60708379745483, "feed": "mdb-791"}, {"name": "CIUDAD DE TOLEDO-PATRIMONIO MUNDIAL", "lat": 40.0620727539063, "lng": -3.60834193229675, "feed": "mdb-791"}, {"name": "HOSPITAL DEL TAJO", "lat": 40.0554237365723, "lng": -3.6100766658783, "feed": "mdb-791"}, {"name": "JACINTO GUERRERO-MAESTRO GURIDI", "lat": 40.0333633422852, "lng": -3.61416983604431, "feed": "mdb-791"}, {"name": "JACINTO GUERRERO-MAESTRO TORROBA", "lat": 40.0325393676758, "lng": -3.6133770942688, "feed": "mdb-791"}, {"name": "ÚBEDA-ISLAS GALÁPAGOS", "lat": 40.0560035705566, "lng": -3.60057306289673, "feed": "mdb-791"}, {"name": "SANTIAGO DE COMPOSTELA-OVIEDO", "lat": 40.0642547607422, "lng": -3.60116147994995, "feed": "mdb-791"}, {"name": "PRÍNCIPE-STUART", "lat": 40.0360641479492, "lng": -3.60282444953918, "feed": "mdb-791"}, {"name": "ALMANSA-FOSO", "lat": 40.0337219238281, "lng": -3.59735369682312, "feed": "mdb-791"}, {"name": "CTRA.MADRID-DOCE CALLES", "lat": 40.0475997924805, "lng": -3.60896348953247, "feed": "mdb-791"}, {"name": "ALMÍBAR-INFANTAS", "lat": 40.03466796875, "lng": -3.60264801979065, "feed": "mdb-791"}, {"name": "ALMÍBAR-GOBERNADOR", "lat": 40.032096862793, "lng": -3.60301232337952, "feed": "mdb-791"}, {"name": "REY-INFANTAS", "lat": 40.035026550293, "lng": -3.59993195533752, "feed": "mdb-791"}, {"name": "GONZALO CHACÓN-CTRA.CUESTA DEL REGAJAL", "lat": 40.0206871032715, "lng": -3.6057243347168, "feed": "mdb-791"}, {"name": "GONZALO CHACÓN-CTRA.CUESTA DEL REGAJAL", "lat": 40.0209465026855, "lng": -3.60584378242493, "feed": "mdb-791"}, {"name": "REY-CALANDRIA", "lat": 40.0290451049805, "lng": -3.6010046005249, "feed": "mdb-791"}, {"name": "GOBERNADOR-CENTRO DE MAYORES", "lat": 40.0322380065918, "lng": -3.59895825386047, "feed": "mdb-791"}, {"name": "PZA.JAIME MERIC-CRISTO", "lat": 40.2422561645508, "lng": -3.70202970504761, "feed": "mdb-791"}, {"name": "AV.ESPAÑA-JOAN MIRÓ", "lat": 40.2393035888672, "lng": -3.69962453842163, "feed": "mdb-791"}, {"name": "SUR-POLIDEPORTIVO", "lat": 40.2362289428711, "lng": -3.69904041290283, "feed": "mdb-791"}, {"name": "AV.ESPAÑA-TERREROS", "lat": 40.2408027648926, "lng": -3.69760608673096, "feed": "mdb-791"}, {"name": "ALFARO-IGLESIA", "lat": 40.2433319091797, "lng": -3.69846677780151, "feed": "mdb-791"}, {"name": "AV.ISABEL LA CATÓLICA-POLIDEPORTIVO", "lat": 40.2445755004883, "lng": -3.69953775405884, "feed": "mdb-791"}, {"name": "AV.ISABEL LA CATÓLICA-FERNANDO CATÓLICO", "lat": 40.2457542419434, "lng": -3.6968457698822, "feed": "mdb-791"}, {"name": "CAÑADA REAL DE TOLEDO-MÉJICO", "lat": 40.2370910644531, "lng": -3.70049524307251, "feed": "mdb-791"}, {"name": "VALDEMORO-FEDERICO GARCÍA LORCA", "lat": 40.2371139526367, "lng": -3.69822669029236, "feed": "mdb-791"}, {"name": "CTRA.A4-POL.IND.SAN MARCOS", "lat": 40.2976760864258, "lng": -3.69183707237244, "feed": "mdb-791"}, {"name": "CTRA.A4-POL.IND.SAN MARCOS", "lat": 40.2964553833008, "lng": -3.69109511375427, "feed": "mdb-791"}, {"name": "CAÑADA REAL DE TOLEDO-PZA.LAS MERCEDES", "lat": 40.2389221191406, "lng": -3.70036125183105, "feed": "mdb-791"}, {"name": "CATALUÑA-ARAGÓN", "lat": 40.2474517822266, "lng": -3.69460582733154, "feed": "mdb-791"}, {"name": "AV.CORDOBA-HOSPITAL 12 DE OCTUBRE", "lat": 40.3766212463379, "lng": -3.69566106796265, "feed": "mdb-791"}, {"name": "AV.ANDALUCIA-AV.POBLADOS", "lat": 40.3703842163086, "lng": -3.69451332092285, "feed": "mdb-791"}, {"name": "AV.ANDALUCIA-AV.LOS FUEROS", "lat": 40.3701972961426, "lng": -3.69413447380066, "feed": "mdb-791"}, {"name": "AV.ANDALUCIA-VERBENA DE LA PALOMA", "lat": 40.3604354858398, "lng": -3.69348073005676, "feed": "mdb-791"}, {"name": "AV.ANDALUCIA-CONCILIACION", "lat": 40.360652923584, "lng": -3.69316506385803, "feed": "mdb-791"}, {"name": "AV.EUROPA-REINO UNIDO", "lat": 40.2487373352051, "lng": -3.69523024559021, "feed": "mdb-791"}, {"name": "AV.EUROPA-LUXEMBURGO", "lat": 40.2491455078125, "lng": -3.69499921798706, "feed": "mdb-791"}, {"name": "PZA.DAVID MARTÍN-CENTRO DE SALUD", "lat": 40.2519111633301, "lng": -3.69483947753906, "feed": "mdb-791"}, {"name": "PZA.DAVID MARTÍN-CENTRO DE SALUD", "lat": 40.2518005371094, "lng": -3.69541454315186, "feed": "mdb-791"}, {"name": "SIERRA NEVADA-LAS MARISMAS", "lat": 40.2671890258789, "lng": -3.69214963912964, "feed": "mdb-791"}, {"name": "SIERRA NEVADA-LAS MARISMAS", "lat": 40.2673530578613, "lng": -3.69188070297241, "feed": "mdb-791"}, {"name": "SIERRA NEVADA-DOÑANA", "lat": 40.2646217346191, "lng": -3.6917941570282, "feed": "mdb-791"}, {"name": "SIERRA NEVADA-DOÑANA", "lat": 40.2640533447266, "lng": -3.692058801651, "feed": "mdb-791"}, {"name": "PºDE LAS ARTES-PABLO GARGALLO", "lat": 40.2558250427246, "lng": -3.69442081451416, "feed": "mdb-791"}, {"name": "PºDE LAS ARTES-COLEGIO", "lat": 40.2550354003906, "lng": -3.69498896598816, "feed": "mdb-791"}, {"name": "PZA.ASUNCIÓN-ALFARO", "lat": 40.2456932067871, "lng": -3.69523429870605, "feed": "mdb-791"}, {"name": "CATALUÑA-ARAGÓN", "lat": 40.2472801208496, "lng": -3.69472146034241, "feed": "mdb-791"}, {"name": "AV.ANDALUCÍA-VILLAVERDE BAJO CRUCE", "lat": 40.3500862121582, "lng": -3.69332599639893, "feed": "mdb-791"}, {"name": "AV.ANDALUCÍA-VILLAVERDE BAJO CRUCE", "lat": 40.3504486083984, "lng": -3.69283509254456, "feed": "mdb-791"}, {"name": "PºDE LA CHOPERA-LEGAZPI", "lat": 40.3917694091797, "lng": -3.6960391998291, "feed": "mdb-791"}, {"name": "PºDE LAS ARTES-AV.JUAN PABLO II", "lat": 40.2593574523926, "lng": -3.693763256073, "feed": "mdb-791"}, {"name": "PºDE LAS ARTES-FRANCISCO BARBIERI", "lat": 40.2591552734375, "lng": -3.69313788414001, "feed": "mdb-791"}, {"name": "PºDELICIAS-PLAZA DE LEGAZPI", "lat": 40.3923721313477, "lng": -3.69483184814453, "feed": "mdb-791"}, {"name": "AV.CORDOBA-ANTONIO LOPEZ", "lat": 40.3873481750488, "lng": -3.69891715049744, "feed": "mdb-791"}, {"name": "AV.ANDALUCÍA-POL.IND.ALBRESA", "lat": 40.2108116149902, "lng": -3.68218660354614, "feed": "mdb-791"}, {"name": "AV.ANDALUCÍA-POL.IND.ALBRESA", "lat": 40.2098731994629, "lng": -3.68110775947571, "feed": "mdb-791"}, {"name": "AV.ANDALUCÍA-RESIDENCIA", "lat": 40.2046775817871, "lng": -3.67906999588013, "feed": "mdb-791"}, {"name": "SAN VICENTE DE PAÚL-DOCTOR FLEMING", "lat": 40.1932601928711, "lng": -3.67650079727173, "feed": "mdb-791"}, {"name": "SAN VICENTE DE PAÚL-TENERÍAS", "lat": 40.192554473877, "lng": -3.68034696578979, "feed": "mdb-791"}, {"name": "NEGRITAS-RÍO GUADALQUIVIR", "lat": 40.191593170166, "lng": -3.68300414085388, "feed": "mdb-791"}, {"name": "AV.ANDALUCÍA-PºDE LOS HOTELES", "lat": 40.191535949707, "lng": -3.67415738105774, "feed": "mdb-791"}, {"name": "CTRA.A4-ÁREA EMPRESARIAL ANDALUCÍA", "lat": 40.2668190002441, "lng": -3.69091081619263, "feed": "mdb-791"}, {"name": "CTRA.A4-POLÍGONO IND.LAS ARENAS", "lat": 40.2671356201172, "lng": -3.6902437210083, "feed": "mdb-791"}, {"name": "PARLA-VICENTE ALEIXANDRE", "lat": 40.1929664611816, "lng": -3.68794059753418, "feed": "mdb-791"}, {"name": "PºESTACIÓN-ALBERIZA", "lat": 40.1919898986816, "lng": -3.67158913612366, "feed": "mdb-791"}, {"name": "CTRA.A4-CENTRO DE ALMACENAJE Y DISTRIB.", "lat": 40.2196617126465, "lng": -3.68513107299805, "feed": "mdb-791"}, {"name": "PºCOMUNIDAD DE MADRID-CEMENTERIO", "lat": 40.1878700256348, "lng": -3.68465852737427, "feed": "mdb-791"}, {"name": "LIBERTAD-COMUNIDAD MADRID", "lat": 40.190559387207, "lng": -3.68561363220215, "feed": "mdb-791"}, {"name": "AGUADO-AV.HISPANOAMÉRICA", "lat": 40.1869812011719, "lng": -3.68864345550537, "feed": "mdb-791"}, {"name": "JOSÉ MARÍA PEMÁN-EMILIA PARDO BAZÁN", "lat": 40.1937370300293, "lng": -3.68899393081665, "feed": "mdb-791"}, {"name": "LIBERTAD-CUBA", "lat": 40.1903076171875, "lng": -3.68845391273499, "feed": "mdb-791"}, {"name": "DALÍ-PISCINA MUNICIPAL", "lat": 40.1951904296875, "lng": -3.68687033653259, "feed": "mdb-791"}, {"name": "DALÍ-CRISTO DE LA SALUD", "lat": 40.1962089538574, "lng": -3.68195796012878, "feed": "mdb-791"}, {"name": "GTA.JOSÉ MªPEMÁN-ANTONIO VAN DE PERE", "lat": 40.1953086853027, "lng": -3.68812870979309, "feed": "mdb-791"}, {"name": "AV.ANDALUCÍA-POLÍGONO IND.ALBRESA", "lat": 40.2063102722168, "lng": -3.68041396141052, "feed": "mdb-791"}, {"name": "AV.ESPAÑA-LIBERTAD", "lat": 40.1911277770996, "lng": -3.69116425514221, "feed": "mdb-791"}, {"name": "AV.ESPAÑA-JAMAICA", "lat": 40.1850204467773, "lng": -3.69288778305054, "feed": "mdb-791"}, {"name": "AGUADO-RONDA DE LAS COMUNIDADES", "lat": 40.1876525878906, "lng": -3.68761658668518, "feed": "mdb-791"}, {"name": "AGUADO-PARAGUAY", "lat": 40.1862869262695, "lng": -3.69012832641602, "feed": "mdb-791"}, {"name": "AGUADO-GUATEMALA", "lat": 40.1855545043945, "lng": -3.6921648979187, "feed": "mdb-791"}, {"name": "AV.ESPAÑA-BIBLIOTECA", "lat": 40.1876602172852, "lng": -3.69256234169006, "feed": "mdb-791"}, {"name": "DALÍ-RAFAEL", "lat": 40.1957931518555, "lng": -3.68386888504028, "feed": "mdb-791"}, {"name": "PÍO BAROJA-MIGUEL HERNÁNDEZ", "lat": 40.1934814453125, "lng": -3.68502044677734, "feed": "mdb-791"}, {"name": "ESTACIÓN SUR DE AUTOBUSES", "lat": 40.3943367004395, "lng": -3.67820262908936, "feed": "mdb-791"}, {"name": "CTRA.A4-CTRA.M841", "lat": 40.2459259033203, "lng": -3.68958139419556, "feed": "mdb-791"}, {"name": "AV.ANDALUCÍA-POLÍGONO IND.VALMOR", "lat": 40.172607421875, "lng": -3.66603088378906, "feed": "mdb-791"}, {"name": "INFANTAS-ESTACION DE AUTOBUSES", "lat": 40.0347900390625, "lng": -3.60206389427185, "feed": "mdb-791"}, {"name": "NARCISO MONTURIOL-AV.B.DAZA DE VALDÉS", "lat": 40.173095703125, "lng": -3.66724538803101, "feed": "mdb-791"}, {"name": "MORERAS-COLEGIO", "lat": 40.0351333618164, "lng": -3.58924341201782, "feed": "mdb-791"}, {"name": "CTRA.A4-SESEÑA NUEVO", "lat": 40.1087951660156, "lng": -3.64860534667969, "feed": "mdb-791"}, {"name": "CTRA.A4-SESEÑA NUEVO", "lat": 40.1074829101563, "lng": -3.64617586135864, "feed": "mdb-791"}, {"name": "AV.ANDALUCÍA-FEDERICO MARÍN", "lat": 40.1910133361816, "lng": -3.67396426200867, "feed": "mdb-791"}, {"name": "Pº MOLINO-PZA.LEGAZPI", "lat": 40.3908805847168, "lng": -3.69430994987488, "feed": "mdb-791"}, {"name": "Pº MOLINO-PZA.LEGAZPI", "lat": 40.3906555175781, "lng": -3.69443702697754, "feed": "mdb-791"}, {"name": "Méndez Álvaro Estación Sur", "lat": 40.39538, "lng": -3.67819, "feed": "mdb-791"}, {"name": "AV.MAR MEDITERRÁNEO-CENTRO COMERCIAL", "lat": 40.1851654052734, "lng": -3.67907500267029, "feed": "mdb-791"}, {"name": "AV.MAR MEDITERRÁNEO-CIBELES", "lat": 40.1840515136719, "lng": -3.68153071403503, "feed": "mdb-791"}, {"name": "AV.MAR MEDITERRÁNEO-OLIMPO", "lat": 40.1837539672852, "lng": -3.68151593208313, "feed": "mdb-791"}, {"name": "AV.MAR MEDITERRÁNEO-VENUS", "lat": 40.1819381713867, "lng": -3.6835298538208, "feed": "mdb-791"}, {"name": "AV.MAR MEDITERRÁNEO-MINERVA", "lat": 40.1790161132813, "lng": -3.6860728263855, "feed": "mdb-791"}, {"name": "AV.MAR ADRIÁTICO-COLEGIO", "lat": 40.1770057678223, "lng": -3.6842086315155, "feed": "mdb-791"}, {"name": "APOLO-JÚPITER", "lat": 40.179370880127, "lng": -3.68089652061462, "feed": "mdb-791"}, {"name": "GTA.POZO SAN PEDRO-PºJUNCAREJO", "lat": 40.1762161254883, "lng": -3.68108820915222, "feed": "mdb-791"}, {"name": "GTA.SIRENAS-AV.MAR MEDITERRÁNEO", "lat": 40.1775398254395, "lng": -3.68738532066345, "feed": "mdb-791"}, {"name": "SALINAS-PºDEL JUNCAREJO", "lat": 40.1851501464844, "lng": -3.67666673660278, "feed": "mdb-791"}, {"name": "CHEQUIA-PORTUGAL", "lat": 40.1842231750488, "lng": -3.6735565662384, "feed": "mdb-791"}, {"name": "CHEQUIA-PORTUGAL", "lat": 40.1842384338379, "lng": -3.67409706115723, "feed": "mdb-791"}, {"name": "AV.EUROPA-ESLOVAQUIA", "lat": 40.1821708679199, "lng": -3.67169213294983, "feed": "mdb-791"}, {"name": "AV.EUROPA-ESLOVAQUIA", "lat": 40.182315826416, "lng": -3.67156434059143, "feed": "mdb-791"}, {"name": "AV.EUROPA-BENELUX", "lat": 40.1787452697754, "lng": -3.67178750038147, "feed": "mdb-791"}, {"name": "AV.EUROPA-BENELUX", "lat": 40.1785850524902, "lng": -3.67151570320129, "feed": "mdb-791"}, {"name": "GTA.SIRENAS-AV.MAR ADRIÁTICO", "lat": 40.1772727966309, "lng": -3.6863842010498, "feed": "mdb-791"}, {"name": "AV.MAR MEDITERRÁNEO-GTA.AMAZONAS", "lat": 40.1759262084961, "lng": -3.68745112419128, "feed": "mdb-791"}, {"name": "ESTRELLAS-CASTILLA LA NUEVA", "lat": 40.1598205566406, "lng": -3.62319993972778, "feed": "mdb-791"}, {"name": "ESTRELLAS-AV.VENERABLE MADRE MªANTONIA", "lat": 40.1598854064941, "lng": -3.62287163734436, "feed": "mdb-791"}, {"name": "AV.BELÉN-MANUEL DE FALLA", "lat": 40.1554489135742, "lng": -3.62848949432373, "feed": "mdb-791"}, {"name": "AV.BELÉN-VENTURA RODRIGUEZ", "lat": 40.1557426452637, "lng": -3.62713003158569, "feed": "mdb-791"}, {"name": "AV.CONSUELO-AV.BELÉN", "lat": 40.1559295654297, "lng": -3.62280035018921, "feed": "mdb-791"}, {"name": "AV.CONSUELO-LUNA", "lat": 40.1563987731934, "lng": -3.62256979942322, "feed": "mdb-791"}, {"name": "AV.MADRID-ESTRELLAS", "lat": 40.1637191772461, "lng": -3.62525534629822, "feed": "mdb-791"}, {"name": "ESTRELLAS-AV.MADRID", "lat": 40.1629295349121, "lng": -3.62461400032043, "feed": "mdb-791"}, {"name": "AV.MADRID-CTRA.M404", "lat": 40.1647033691406, "lng": -3.6280357837677, "feed": "mdb-791"}, {"name": "AV.CONSUELO-DOCTOR RIVAS", "lat": 40.1586990356445, "lng": -3.62078237533569, "feed": "mdb-791"}, {"name": "AV.CONSUELO-CERVANTES", "lat": 40.1577491760254, "lng": -3.62131404876709, "feed": "mdb-791"}, {"name": "AV.ESPAÑA-LIBERTAD", "lat": 40.1910133361816, "lng": -3.6909282207489, "feed": "mdb-791"}, {"name": "URBANIZACIÓN PARQUE OLIMPIA-AV.BELÉN", "lat": 40.1556358337402, "lng": -3.63209581375122, "feed": "mdb-791"}, {"name": "AV REYES CATÓLICOS-PEDRO DE VALDIVIA", "lat": 40.1968994140625, "lng": -3.69611048698425, "feed": "mdb-791"}, {"name": "PINTO-GUARDIA CIVIL", "lat": 40.2459678649902, "lng": -3.69280457496643, "feed": "mdb-791"}, {"name": "COTO DE DOÑANA-SERRANÍA DE RONDA", "lat": 40.2649307250977, "lng": -3.69917106628418, "feed": "mdb-791"}, {"name": "NASSICA-CENTRO COMERCIAL", "lat": 40.2711524963379, "lng": -3.69987034797668, "feed": "mdb-791"}, {"name": "NASSICA-CENTRO COMERCIAL", "lat": 40.2709350585938, "lng": -3.69965648651123, "feed": "mdb-791"}, {"name": "RÍO BEMBEZAR-RÍO CHANZA", "lat": 40.2770690917969, "lng": -3.69695544242859, "feed": "mdb-791"}, {"name": "NASSICA-CENTRO OUTLET", "lat": 40.2713737487793, "lng": -3.69432234764099, "feed": "mdb-791"}, {"name": "RÍO ODIEL-BEMBÉZAR", "lat": 40.2759094238281, "lng": -3.70106029510498, "feed": "mdb-791"}, {"name": "RÍO TINTO-RÍO ODIEL", "lat": 40.2743110656738, "lng": -3.7005615234375, "feed": "mdb-791"}, {"name": "MARÍA BLANCHARD-PINTOR ANTONIO LOPEZ", "lat": 40.2519226074219, "lng": -3.69869637489319, "feed": "mdb-791"}, {"name": "AV.PINTOR ANTONIO LÓPEZ-LUIS FEITO", "lat": 40.2527351379395, "lng": -3.69977474212646, "feed": "mdb-791"}, {"name": "AV.PINTOR ANTONIO LÓPEZ-LUIS FEITO", "lat": 40.253002166748, "lng": -3.69941282272339, "feed": "mdb-791"}, {"name": "MARÍA BLANCHARD-CEMENTERIO", "lat": 40.2520866394043, "lng": -3.69828653335571, "feed": "mdb-791"}, {"name": "NASSICA-CENTRO OUTLET", "lat": 40.2707939147949, "lng": -3.6948573589325, "feed": "mdb-791"}, {"name": "MANUEL DE FALLA-ESCUELA DE MÚSICA", "lat": 40.2564659118652, "lng": -3.69980144500732, "feed": "mdb-791"}, {"name": "MANUEL DE FALLA-AV.JUAN PABLO II", "lat": 40.2584571838379, "lng": -3.69996285438538, "feed": "mdb-791"}, {"name": "AV.JUAN DE LA CIERVA-PZA.LAS HERAS", "lat": 40.3074913024902, "lng": -3.72512269020081, "feed": "mdb-791"}, {"name": "AV.JUAN DE LA CIERVA-PZA.DE ESPAÑA", "lat": 40.308305749847, "lng": -3.72499581740254, "feed": "mdb-791"}, {"name": "LEGANÉS-BATRES", "lat": 40.3104468140654, "lng": -3.73689292943845, "feed": "mdb-791"}, {"name": "PZA.ALCALDE JUAN VERGARA-LEGANÉS", "lat": 40.3108712612135, "lng": -3.73673278575825, "feed": "mdb-791"}, {"name": "PºJOHN LENNON-CARPINTEROS", "lat": 40.3043785095215, "lng": -3.70120167732239, "feed": "mdb-791"}, {"name": "AV JUAN DE LA CIERVA-HOSPITAL DE SAN JOSE", "lat": 40.3050079345703, "lng": -3.72494316101074, "feed": "mdb-791"}, {"name": "PºJOHN LENNON-EST.GETAFE INDUSTRIAL", "lat": 40.3048820495605, "lng": -3.70887923240662, "feed": "mdb-791"}, {"name": "PºJOHN LENNON-DIESEL", "lat": 40.3039894104004, "lng": -3.70006799697876, "feed": "mdb-791"}, {"name": "MADRID-UNIVERSIDAD", "lat": 40.3159370422363, "lng": -3.72727274894714, "feed": "mdb-791"}, {"name": "MADRID-UNIVERSIDAD", "lat": 40.3168144226074, "lng": -3.72695255279541, "feed": "mdb-791"}, {"name": "MADRID-PZA.VICTORIA KENT", "lat": 40.3188056945801, "lng": -3.72687983512878, "feed": "mdb-791"}, {"name": "MADRID-PZA.VICTORIA KENT", "lat": 40.3191757202148, "lng": -3.72666001319885, "feed": "mdb-791"}, {"name": "PºJOHN LENNON-BASE AÉREA", "lat": 40.3046493530273, "lng": -3.72457456588745, "feed": "mdb-791"}, {"name": "AV.JUAN DE LA CIERVA-PZA.SAN SEBASTIÁN", "lat": 40.3122367858887, "lng": -3.72700929641724, "feed": "mdb-791"}, {"name": "AV.JUAN DE LA CIERVA-PZA.SAN SEBASTIÁN", "lat": 40.3123742612578, "lng": -3.72700468938661, "feed": "mdb-791"}, {"name": "PºJOHN LENNON-EST.GETAFE INDUSTRIAL", "lat": 40.3051223754883, "lng": -3.70924663543701, "feed": "mdb-791"}, {"name": "GLORIETA A42-HOSPITAL DE GETAFE", "lat": 40.3122768023265, "lng": -3.73953722261859, "feed": "mdb-791"}, {"name": "GLORIETA A42-HOSPITAL DE GETAFE", "lat": 40.3127174377441, "lng": -3.73912477493286, "feed": "mdb-791"}, {"name": "COTO DE DOÑANA-SIERRA MORENA", "lat": 40.2650146484375, "lng": -3.69402098655701, "feed": "mdb-791"}, {"name": "RÍO ALMANZORA-RÍO GUADALETE", "lat": 40.2709999084473, "lng": -3.70849013328552, "feed": "mdb-791"}, {"name": "FERROCARRIL-EST.GETAFE CENTRO", "lat": 40.3096110552793, "lng": -3.73372998001551, "feed": "mdb-791"}, {"name": "FERROCARRIL-EST.GETAFE CENTRO", "lat": 40.3091666537654, "lng": -3.73419589368629, "feed": "mdb-791"}, {"name": "PºDE LA ESTACIÓN-FRANCISCO PIZARRO", "lat": 40.3134253018705, "lng": -3.73177056432889, "feed": "mdb-791"}, {"name": "PºESTACIÓN-MAGALLANES", "lat": 40.3157837280395, "lng": -3.73065440988124, "feed": "mdb-791"}, {"name": "JOSÉ MARÍA PEMÁN-PARLA", "lat": 40.193717956543, "lng": -3.6887469291687, "feed": "mdb-791"}, {"name": "PºESTACIÓN-JOAN FONT", "lat": 40.3169189436827, "lng": -3.73064310834098, "feed": "mdb-791"}, {"name": "PºDE LA ESTACIÓN-TERRADAS", "lat": 40.3142526664212, "lng": -3.73200310617511, "feed": "mdb-791"}, {"name": "ROSALÍA DE CASTRO-GTA.EULALIA ABAITUA", "lat": 40.1945266723633, "lng": -3.69538116455078, "feed": "mdb-791"}, {"name": "AGUSTINA DE ARAGÓN-SUPERMERCADO", "lat": 40.1928062438965, "lng": -3.69243836402893, "feed": "mdb-791"}, {"name": "AGUSTINA DE ARAGÓN-SUPERMERCADO", "lat": 40.1925048828125, "lng": -3.69284653663635, "feed": "mdb-791"}, {"name": "PATRIMONIO MUNDIAL-MIRÓ", "lat": 40.0601425170898, "lng": -3.60737490653992, "feed": "mdb-791"}, {"name": "PºDE LA CHOPERA-LEGAZPI", "lat": 40.3918190002441, "lng": -3.69585108757019, "feed": "mdb-791"}, {"name": "CÓRDOBA-CATEDRAL DE BURGOS", "lat": 40.0640182495117, "lng": -3.60522842407227, "feed": "mdb-791"}, {"name": "AV.PAZ DE HIROSIMA-SANTIAGO COMPOSTELA", "lat": 40.0664939880371, "lng": -3.60378456115723, "feed": "mdb-791"}, {"name": "SANTIAGO DE COMPOSTELA-PRAGA", "lat": 40.0614700317383, "lng": -3.5997416973114, "feed": "mdb-791"}, {"name": "GTA.VALLE DEL LOIRE-AV.AMAZONAS CENTRAL", "lat": 40.0568237304688, "lng": -3.59737944602966, "feed": "mdb-791"}, {"name": "SANTIAGO DE COMPOSTELA-OVIEDO", "lat": 40.0641174316406, "lng": -3.60132455825806, "feed": "mdb-791"}, {"name": "CHINCHÓN-CONVENTO", "lat": 40.1389465332031, "lng": -3.42651343345642, "feed": "mdb-791"}, {"name": "CHINCHÓN-RONDA DEL MEDIODÍA", "lat": 40.1392478942871, "lng": -3.41780495643616, "feed": "mdb-791"}, {"name": "VILLACONEJOS-PZA.ALEGRÍA", "lat": 40.1041564941406, "lng": -3.48700165748596, "feed": "mdb-791"}, {"name": "CHINCHÓN-RONDA DEL MEDIODÍA", "lat": 40.1389961242676, "lng": -3.41772127151489, "feed": "mdb-791"}, {"name": "NICOLAS ARESPACOCHAGA-AYUNTAMIENTO", "lat": 40.161449432373, "lng": -3.36649632453918, "feed": "mdb-791"}, {"name": "COLMENAR-RESIDENCIA", "lat": 40.1136589050293, "lng": -3.39236044883728, "feed": "mdb-791"}, {"name": "BELMONTE-PZA.VALENCIA", "lat": 40.1331329345703, "lng": -3.33651828765869, "feed": "mdb-791"}, {"name": "ENCOMIENDA-CASTILLO", "lat": 40.1680183410645, "lng": -3.27399826049805, "feed": "mdb-791"}, {"name": "RDA.CARLOS III-REAL CORTIJO SAN ISIDRO", "lat": 40.0541191101074, "lng": -3.56507897377014, "feed": "mdb-791"}, {"name": "RDA.CARLOS III-REAL CORTIJO SAN ISIDRO", "lat": 40.0541076660156, "lng": -3.56560635566711, "feed": "mdb-791"}, {"name": "VILLACONEJOS-CENTRO CULTURAL", "lat": 40.1054191589355, "lng": -3.48223519325256, "feed": "mdb-791"}, {"name": "CTRA.M320-URTAJO 2", "lat": 40.0773315429688, "lng": -3.48552012443542, "feed": "mdb-791"}, {"name": "CTRA.M320-BALCÓN DEL TAJO", "lat": 40.0648078918457, "lng": -3.48789381980896, "feed": "mdb-791"}, {"name": "CTRA.M320-URTAJO 2", "lat": 40.0776901245117, "lng": -3.48542904853821, "feed": "mdb-791"}, {"name": "CTRA.M320-BALCÓN DEL TAJO", "lat": 40.0652046203613, "lng": -3.48766207695007, "feed": "mdb-791"}, {"name": "ITALIA-URB.VALLE SAN JUAN", "lat": 40.0717315673828, "lng": -3.45347666740417, "feed": "mdb-791"}, {"name": "CTRA.M318-URB.LOS VALLEJOS", "lat": 40.0788154602051, "lng": -3.4499933719635, "feed": "mdb-791"}, {"name": "VILLACONEJOS-URB.SAN ISIDRO", "lat": 40.0987663269043, "lng": -3.49143099784851, "feed": "mdb-791"}, {"name": "CTRA.M305A-TALLERES", "lat": 40.0586814880371, "lng": -3.52837014198303, "feed": "mdb-791"}, {"name": "CTRA.M305-TALLERES", "lat": 40.0579605102539, "lng": -3.52864599227905, "feed": "mdb-791"}, {"name": "VILLACONEJOS-URB.SAN ISIDRO", "lat": 40.0986099243164, "lng": -3.4918053150177, "feed": "mdb-791"}, {"name": "CHINCHÓN-CONVENTO", "lat": 40.1389350891113, "lng": -3.42671275138855, "feed": "mdb-791"}, {"name": "BELMONTE-CTRA.VALDELAGUNA", "lat": 40.1321220397949, "lng": -3.34082102775574, "feed": "mdb-791"}, {"name": "BELMONTE-CTRA.VALDELAGUNA", "lat": 40.1326217651367, "lng": -3.34170365333557, "feed": "mdb-791"}, {"name": "BELMONTE-LAS FLORES", "lat": 40.1685256958008, "lng": -3.28080010414124, "feed": "mdb-791"}, {"name": "BELMONTE-POLIDEPORTIVO", "lat": 40.1679649353027, "lng": -3.2811267375946, "feed": "mdb-791"}, {"name": "CTRA.M320-URTAJO 1", "lat": 40.0834541320801, "lng": -3.48641991615295, "feed": "mdb-791"}, {"name": "CTRA.M320-URTAJO 1", "lat": 40.0837707519531, "lng": -3.4859881401062, "feed": "mdb-791"}, {"name": "JOSÉ ANTONIO-TRVA.DE LA FUENTE", "lat": 40.1605796813965, "lng": -3.3707160949707, "feed": "mdb-791"}, {"name": "COLMENAR-CONVENTO", "lat": 40.1069755554199, "lng": -3.39368057250977, "feed": "mdb-791"}, {"name": "COLMENAR-CONVENTO", "lat": 40.1068687438965, "lng": -3.39391469955444, "feed": "mdb-791"}, {"name": "VALDELAGUNA-CTRA.VILLAREJO", "lat": 40.1605758666992, "lng": -3.36332106590271, "feed": "mdb-791"}, {"name": "VALDELAGUNA-CTRA.VILLAREJO", "lat": 40.1604156494141, "lng": -3.36275672912598, "feed": "mdb-791"}, {"name": "COLMENAR-ESTACIÓN DE AUTOBUSES", "lat": 40.1115798950195, "lng": -3.38970828056335, "feed": "mdb-791"}, {"name": "CHINCHÓN-CTRA.MADRID", "lat": 40.1376800537109, "lng": -3.41483736038208, "feed": "mdb-791"}, {"name": "CHINCHÓN-CTRA.DE MADRID", "lat": 40.1379165649414, "lng": -3.41472125053406, "feed": "mdb-791"}, {"name": "CTRA. DE VILLAREJO-AV.FELIPE SERRANO", "lat": 40.1328735351563, "lng": -3.33551621437073, "feed": "mdb-791"}, {"name": "CTRA.M317-AYUNTAMIENTO", "lat": 40.1615028381348, "lng": -3.36637926101685, "feed": "mdb-791"}, {"name": "SAN JOSÉ-ENCOMIENDA", "lat": 40.167594909668, "lng": -3.27412581443787, "feed": "mdb-791"}, {"name": "ENCOMIENDA-SAN JOSÉ", "lat": 40.1675682067871, "lng": -3.27356195449829, "feed": "mdb-791"}, {"name": "RÍO MANZANARES-PLAZA DE TOROS", "lat": 40.193977355957, "lng": -3.68468475341797, "feed": "mdb-791"}, {"name": "AV.ANDALUCÍA-PºDE LA ESTACIÓN", "lat": 40.1912040710449, "lng": -3.67355513572693, "feed": "mdb-791"}, {"name": "PºENRIQUE TIERNO GALVÁN-COLEGIO", "lat": 40.186882019043, "lng": -3.67320680618286, "feed": "mdb-791"}, {"name": "PºE.TIERNO GALVÁN-PARQUE TIERNO GALVÁN", "lat": 40.1864051818848, "lng": -3.67624473571777, "feed": "mdb-791"}, {"name": "PZA.EMPERADOR CARLOS V-ATOCHA", "lat": 40.4074897766113, "lng": -3.69362020492554, "feed": "mdb-791"}, {"name": "AV.ESPAÑA-AGUADO", "lat": 40.1842918395996, "lng": -3.69369101524353, "feed": "mdb-791"}, {"name": "AV.MAR EGEO-INSTITUTO", "lat": 40.1788597106934, "lng": -3.6896538734436, "feed": "mdb-791"}, {"name": "AV.ESPAÑA-AV.MAR EGEO", "lat": 40.181079864502, "lng": -3.69478583335876, "feed": "mdb-791"}, {"name": "ALMÍBAR-NARANJA", "lat": 40.0305671691895, "lng": -3.60317444801331, "feed": "mdb-791"}, {"name": "REY-LA NARANJA", "lat": 40.0302543640137, "lng": -3.60058164596558, "feed": "mdb-791"}, {"name": "REY-GOBERNADOR", "lat": 40.0322113037109, "lng": -3.60032916069031, "feed": "mdb-791"}, {"name": "LIBERTAD-HERENCIA", "lat": 40.1906776428223, "lng": -3.68340635299683, "feed": "mdb-791"}, {"name": "LIBERTAD-RONDA COMUNIDADES", "lat": 40.1903038024902, "lng": -3.68767857551575, "feed": "mdb-791"}, {"name": "PZA.MONJAS-LUIS PLANELLES", "lat": 40.1889381408691, "lng": -3.67632865905762, "feed": "mdb-791"}, {"name": "PºESTACIÓN-EST.VALDEMORO", "lat": 40.1955375671387, "lng": -3.66470432281494, "feed": "mdb-791"}, {"name": "AV.ANDALUCÍA-PºESTACIÓN", "lat": 40.1915740966797, "lng": -3.67377018928528, "feed": "mdb-791"}, {"name": "PÍO BAROJA-CENTRO DE SALUD", "lat": 40.1923942565918, "lng": -3.68583178520203, "feed": "mdb-791"}, {"name": "PºESTACIÓN-IBIZA", "lat": 40.1937255859375, "lng": -3.66784691810608, "feed": "mdb-791"}, {"name": "ESTRIBO-AV.ANDALUCÍA", "lat": 40.1893196105957, "lng": -3.6737949848175, "feed": "mdb-791"}, {"name": "HERENCIA-INSTITUTO", "lat": 40.1891899108887, "lng": -3.68241620063782, "feed": "mdb-791"}, {"name": "LUIS PLANELLES-SESEÑA", "lat": 40.1885643005371, "lng": -3.68020153045654, "feed": "mdb-791"}, {"name": "CUBA-COLEGIO", "lat": 40.1883735656738, "lng": -3.69067811965942, "feed": "mdb-791"}, {"name": "PºESTACIÓN-TENERIFE", "lat": 40.1939506530762, "lng": -3.66808414459229, "feed": "mdb-791"}, {"name": "PºESTACIÓN-ALBERIZA", "lat": 40.1923789978027, "lng": -3.67146372795105, "feed": "mdb-791"}, {"name": "PºESTACIÓN-ALBERIZA", "lat": 40.1922264099121, "lng": -3.67128610610962, "feed": "mdb-791"}, {"name": "SAN JOSÉ-DOCTOR ANDRAJO", "lat": 40.1555252075195, "lng": -3.6158926486969, "feed": "mdb-791"}, {"name": "AV.MADRE MªANTONIA-JERÓNIMO DEL MORAL", "lat": 40.1603775024414, "lng": -3.61966919898987, "feed": "mdb-791"}, {"name": "JERÓNIMO DEL MORAL-MIRLO", "lat": 40.1653060913086, "lng": -3.62289643287659, "feed": "mdb-791"}, {"name": "CARETOS-DULCINEA", "lat": 40.1626930236816, "lng": -3.61810493469238, "feed": "mdb-791"}, {"name": "AV.SAN JUAN DE DIOS-PADRE BENITO MENNI", "lat": 40.1601181030273, "lng": -3.61585068702698, "feed": "mdb-791"}, {"name": "AV.SAN JUAN DE DIOS-EST.CIEMPOZUELOS", "lat": 40.1586570739746, "lng": -3.60985016822815, "feed": "mdb-791"}, {"name": "SAN FRANCISCO-CRUZ VERDE", "lat": 40.1534118652344, "lng": -3.6200532913208, "feed": "mdb-791"}, {"name": "CALDERA DE TABURIENTE-AV CONSUELO", "lat": 40.1535682678223, "lng": -3.62628817558289, "feed": "mdb-791"}, {"name": "OLIMPIA-ARCHIPIÉLAGO CABRERA", "lat": 40.1542434692383, "lng": -3.63268184661865, "feed": "mdb-791"}, {"name": "AV.CONSUELO-CALDERA DE TABURIENTE", "lat": 40.1537437438965, "lng": -3.62579655647278, "feed": "mdb-791"}, {"name": "SAN JOSÉ-CRUZ VERDE", "lat": 40.1552467346191, "lng": -3.61931848526001, "feed": "mdb-791"}, {"name": "LAS PEÑUELAS-CUESTAS", "lat": 40.1562232971191, "lng": -3.6146764755249, "feed": "mdb-791"}, {"name": "VIRGEN-LOS HUERTOS", "lat": 40.1582145690918, "lng": -3.61531662940979, "feed": "mdb-791"}, {"name": "CºDE BUZANCA-CEMENTERIO", "lat": 40.1669883728027, "lng": -3.62382793426514, "feed": "mdb-791"}, {"name": "CºDE BUZANCA-ÁLAMO", "lat": 40.1693077087402, "lng": -3.62939238548279, "feed": "mdb-791"}, {"name": "ÁLAMO-NOGAL", "lat": 40.1666831970215, "lng": -3.63022541999817, "feed": "mdb-791"}, {"name": "AV.SAN JUAN DE DIOS-PºLA ESTACIÓN", "lat": 40.1598854064941, "lng": -3.61251354217529, "feed": "mdb-791"}, {"name": "AV.CIRCUNVALACIÓN-CºPEÑUELAS", "lat": 40.1540412902832, "lng": -3.6120867729187, "feed": "mdb-791"}, {"name": "AV.CIRCUNVALACIÓN-CAMINO DE VALDINOJOS", "lat": 40.1522407531738, "lng": -3.61682558059692, "feed": "mdb-791"}, {"name": "CARETOS-POZO", "lat": 40.1636581420898, "lng": -3.61939382553101, "feed": "mdb-791"}, {"name": "COLEGIATA-JERÓNIMO DEL MORAL", "lat": 40.1632041931152, "lng": -3.62176179885864, "feed": "mdb-791"}, {"name": "AV.TOREROS-ENRIQUE GRANADOS", "lat": 40.155891418457, "lng": -3.63011384010315, "feed": "mdb-791"}, {"name": "TABLAS DE DAIMIEL-ARCHIPIÉLAGO CABRERA", "lat": 40.154167175293, "lng": -3.63016843795776, "feed": "mdb-791"}, {"name": "ARCHIPIÉLAGO CABRERA-TABLAS DE DAIMIEL", "lat": 40.1539344787598, "lng": -3.63045978546143, "feed": "mdb-791"}, {"name": "TRVA.MORERAS-POL.IND.CAMPORROSO", "lat": 40.1756248474121, "lng": -3.63743734359741, "feed": "mdb-791"}, {"name": "OLMO-CEDRO", "lat": 40.1667251586914, "lng": -3.63245701789856, "feed": "mdb-791"}, {"name": "PºENRIQUE TIERNO GALVÁN-COLEGIO", "lat": 40.186653137207, "lng": -3.67385077476501, "feed": "mdb-791"}, {"name": "PºE.TIERNO GALVÁN-PARQUE TIERNO GALVÁN", "lat": 40.1865043640137, "lng": -3.67624568939209, "feed": "mdb-791"}, {"name": "DOCTOR FLEMING-DOCTOR CASTELO", "lat": 40.1938514709473, "lng": -3.67590737342834, "feed": "mdb-791"}, {"name": "GUARDIA CIVIL-CENTRO RAMÓN ARECES", "lat": 40.1957015991211, "lng": -3.67812275886536, "feed": "mdb-791"}, {"name": "PARLA-CENTRO DE SALUD", "lat": 40.1919937133789, "lng": -3.68521690368652, "feed": "mdb-791"}, {"name": "AV.MAR MEDITERRÁNEO-ATENEA", "lat": 40.1789779663086, "lng": -3.6858377456665, "feed": "mdb-791"}, {"name": "ROSALIA DE CASTRO-LILI ÁLVAREZ", "lat": 40.1946830749512, "lng": -3.69043684005737, "feed": "mdb-791"}, {"name": "ROSALIA DE CASTRO-LILI ÁLVAREZ", "lat": 40.1945877075195, "lng": -3.68974256515503, "feed": "mdb-791"}, {"name": "HOSPITAL INFANTA ELENA", "lat": 40.1979904174805, "lng": -3.69606280326843, "feed": "mdb-791"}, {"name": "RDA.COMUNIDADES-RESIDENCIA", "lat": 40.1864128112793, "lng": -3.68579506874084, "feed": "mdb-791"}, {"name": "RDA.COMUNIDADES-ILLESCAS", "lat": 40.184268951416, "lng": -3.68412899971008, "feed": "mdb-791"}, {"name": "SESEÑA-ILLESCAS", "lat": 40.1855621337891, "lng": -3.68215656280518, "feed": "mdb-791"}, {"name": "GTA.UNIVERSO-SATURNO", "lat": 40.18359375, "lng": -3.68238377571106, "feed": "mdb-791"}, {"name": "AGUSTINA DE ARAGÓN-MARÍA MOLINER", "lat": 40.1980628967285, "lng": -3.69176340103149, "feed": "mdb-791"}, {"name": "CºVALDESANCHUELA-PºESTACIÓN", "lat": 40.1930198669434, "lng": -3.67152881622314, "feed": "mdb-791"}, {"name": "AV.MORCILLERAS-CºVALDESANCHUELA", "lat": 40.1958084106445, "lng": -3.67367124557495, "feed": "mdb-791"}, {"name": "AV.MORCILLERAS-AV.SAN ROQUE", "lat": 40.198860168457, "lng": -3.67253828048706, "feed": "mdb-791"}, {"name": "AV.SUR-AV.ARBOLEDAS", "lat": 40.2006034851074, "lng": -3.67346000671387, "feed": "mdb-791"}, {"name": "AV.SUR-AV.ANDALUCÍA", "lat": 40.2002944946289, "lng": -3.67693495750427, "feed": "mdb-791"}, {"name": "GUARDIA CIVIL-CENTRO RAMÓN ARECES", "lat": 40.1955528259277, "lng": -3.67867350578308, "feed": "mdb-791"}, {"name": "CRTA.A4-CENTRO LOGÍSTICO", "lat": 40.2147903442383, "lng": -3.68304896354675, "feed": "mdb-791"}, {"name": "AV.MADRID-DUBLÍN", "lat": 40.2140045166016, "lng": -3.68495678901672, "feed": "mdb-791"}, {"name": "AV.MADRID-PARÍS", "lat": 40.2103042602539, "lng": -3.68456697463989, "feed": "mdb-791"}, {"name": "AV.MADRID-LONDRES", "lat": 40.2076759338379, "lng": -3.68441128730774, "feed": "mdb-791"}, {"name": "AV.CONDE DUQUE-CºENTREGAS", "lat": 40.2066459655762, "lng": -3.67666912078857, "feed": "mdb-791"}, {"name": "AV.MAJUELO-ALMACÉN", "lat": 40.2080421447754, "lng": -3.67670631408691, "feed": "mdb-791"}, {"name": "ANTONIO VAN DE PERE-GABRIELA MISTRAL", "lat": 40.2020034790039, "lng": -3.68523526191711, "feed": "mdb-791"}, {"name": "ANTONIO VAN DE PERE-MARÍA MOLINER", "lat": 40.1981544494629, "lng": -3.68666529655457, "feed": "mdb-791"}, {"name": "DALÍ-COLEGIO GUARDIAS JÓVENES", "lat": 40.1961212158203, "lng": -3.68045330047607, "feed": "mdb-791"}, {"name": "GUARDIA CIVIL-DOCTOR FLEMING", "lat": 40.1947860717773, "lng": -3.67608118057251, "feed": "mdb-791"}, {"name": "CIRCUNVALACIÓN SUR-GTA.POZO SAN PEDRO", "lat": 40.1764183044434, "lng": -3.67995095252991, "feed": "mdb-791"}, {"name": "G.BRAVO SOBREMONTE-NARCISO MONTURIOL", "lat": 40.1753311157227, "lng": -3.67041492462158, "feed": "mdb-791"}, {"name": "G.BRAVO SOBREMONTE-AV.B.DAZA DE VALDÉS", "lat": 40.173900604248, "lng": -3.66882705688477, "feed": "mdb-791"}, {"name": "CIRCUNVALACIÓNSUR-AV.EUROPA", "lat": 40.1772689819336, "lng": -3.67204308509827, "feed": "mdb-791"}, {"name": "CIRCUNVALACIÓNSUR-AV.EUROPA", "lat": 40.1772422790527, "lng": -3.67160820960999, "feed": "mdb-791"}, {"name": "NARCISO MONTURIOL-LEO.TORRES QUEVEDO", "lat": 40.1711578369141, "lng": -3.66609883308411, "feed": "mdb-791"}, {"name": "HOMERO-GRECIA", "lat": 40.174144744873, "lng": -3.68238306045532, "feed": "mdb-791"}, {"name": "HOMERO-DELFOS", "lat": 40.1750373840332, "lng": -3.68678450584412, "feed": "mdb-791"}, {"name": "VIRGILIO-ATLÁNTIDA", "lat": 40.1759719848633, "lng": -3.69143342971802, "feed": "mdb-791"}, {"name": "VIRGILIO-TEBAS", "lat": 40.1765899658203, "lng": -3.69499850273132, "feed": "mdb-791"}, {"name": "GASPAR BRAVO DE SOBREMONTE-ROSARIO", "lat": 40.1761856079102, "lng": -3.67070508003235, "feed": "mdb-791"}, {"name": "GRAN CANARIA-DRAGONERA", "lat": 40.1921730041504, "lng": -3.66494154930115, "feed": "mdb-791"}, {"name": "GRAN CANARIA-PºPRADO", "lat": 40.1921806335449, "lng": -3.66508269309998, "feed": "mdb-791"}, {"name": "CTA.VALDERREMATA-TANATORIO", "lat": 40.190071105957, "lng": -3.66584920883179, "feed": "mdb-791"}, {"name": "CTA.VALDERREMATA-TANATORIO", "lat": 40.1904029846191, "lng": -3.66594648361206, "feed": "mdb-791"}, {"name": "RONDA DE SAN SEBASTIÁN-COLEGIO", "lat": 40.1874389648438, "lng": -3.67054581642151, "feed": "mdb-791"}, {"name": "RONDA DE SAN SEBASTIÁN-COLEGIO", "lat": 40.1874198913574, "lng": -3.67100381851196, "feed": "mdb-791"}, {"name": "CAMINO DE PINTO-GUARDIA CIVIL", "lat": 40.1969680786133, "lng": -3.6817774772644, "feed": "mdb-791"}, {"name": "CAMINO DE PINTO-GREGORIO PRIETO", "lat": 40.1994514465332, "lng": -3.68241333961487, "feed": "mdb-791"}, {"name": "CAMINO DE PINTO-GREGORIO PRIETO", "lat": 40.1996383666992, "lng": -3.68275594711304, "feed": "mdb-791"}, {"name": "TRABAJADORAS DE COTTON-AV.MADRID", "lat": 40.2027587890625, "lng": -3.68511366844177, "feed": "mdb-791"}, {"name": "TRABAJADORAS DE COTTON-GABRIELA MISTRAL", "lat": 40.2026329040527, "lng": -3.68535923957825, "feed": "mdb-791"}, {"name": "TRABAJADORAS COTTON-GTA.JULIANA EYBECK", "lat": 40.2064437866211, "lng": -3.68820595741272, "feed": "mdb-791"}, {"name": "TRABAJADORAS COTTON-GTA.MARIANA PINEDA", "lat": 40.2088432312012, "lng": -3.69054508209229, "feed": "mdb-791"}, {"name": "AGUSTINA DE ARAGÓN-GTA.TERESA DE JESÚS", "lat": 40.2016830444336, "lng": -3.692223072052, "feed": "mdb-791"}, {"name": "AGUSTINA DE ARAGÓN-TERESA DE CALCUTA", "lat": 40.2018356323242, "lng": -3.6917781829834, "feed": "mdb-791"}, {"name": "AGUSTINA ARAGÓN-GTA.JOSEFINA CARABIAS", "lat": 40.198917388916, "lng": -3.69205403327942, "feed": "mdb-791"}, {"name": "AGUSTINA ARAGÓN-GTA.JOSEFINA CARABIAS", "lat": 40.1989707946777, "lng": -3.69178438186646, "feed": "mdb-791"}, {"name": "AV.MAR EGEO-POSEIDÓN", "lat": 40.1791877746582, "lng": -3.69009160995483, "feed": "mdb-791"}, {"name": "AV.ESPAÑA-AV.MAR EGEO", "lat": 40.1813507080078, "lng": -3.69444799423218, "feed": "mdb-791"}, {"name": "AGUSTINA DE ARAGÓN-TRABAJADORAS DEL COTTON", "lat": 40.2089729309082, "lng": -3.69149827957153, "feed": "mdb-791"}, {"name": "AGUSTINA DE ARAGÓN-CLARA CAMPOAMOR", "lat": 40.2063941955566, "lng": -3.69222402572632, "feed": "mdb-791"}, {"name": "AGUSTINA DE ARAGÓN-CLARA CAMPOAMOR", "lat": 40.2063865661621, "lng": -3.69180107116699, "feed": "mdb-791"}, {"name": "ÁGUILA-POL.IND.LA ESTACIÓN", "lat": 40.2457427978516, "lng": -3.70941400527954, "feed": "mdb-791"}, {"name": "F.GARCÍA LORCA-SANTA TERESA", "lat": 40.2386856079102, "lng": -3.69620895385742, "feed": "mdb-791"}, {"name": "FERROCARRIL-SAN PASCUAL BAILÓN", "lat": 40.2459297180176, "lng": -3.70360803604126, "feed": "mdb-791"}, {"name": "FERROCARRIL-EST.PINTO", "lat": 40.2427444458008, "lng": -3.70291757583618, "feed": "mdb-791"}, {"name": "PABLO PICASSO-SANTA TERESA", "lat": 40.2383079528809, "lng": -3.6943359375, "feed": "mdb-791"}, {"name": "ANTONIO TAPIES-LUCIO MUÑOZ", "lat": 40.2486152648926, "lng": -3.70181345939636, "feed": "mdb-791"}, {"name": "AV.JUAN PABLO II-PºLAS ARTES", "lat": 40.2590293884277, "lng": -3.69477105140686, "feed": "mdb-791"}, {"name": "MARIA BLANCHARD-MARTIN CHIRINO", "lat": 40.2518348693848, "lng": -3.70155262947083, "feed": "mdb-791"}, {"name": "ASTURIAS-AUSTRIA", "lat": 40.2550773620605, "lng": -3.69253182411194, "feed": "mdb-791"}, {"name": "AV. NACIONES-ASTURIAS", "lat": 40.2521476745605, "lng": -3.69285464286804, "feed": "mdb-791"}, {"name": "ALPUJARRAS-SAN JUAN", "lat": 40.2454071044922, "lng": -3.69346785545349, "feed": "mdb-791"}, {"name": "ALPUJARRAS-C.C.PLAZA ÉBOLI", "lat": 40.241153717041, "lng": -3.69343614578247, "feed": "mdb-791"}, {"name": "F.GARCÍA LORCA-CENTRO MUNICIPAL", "lat": 40.2377014160156, "lng": -3.69811511039734, "feed": "mdb-791"}, {"name": "PEDRO FAURA-NICARAGUA", "lat": 40.240161895752, "lng": -3.70098543167114, "feed": "mdb-791"}, {"name": "AV.JUAN PABLO II-MATILDE SALVADOR", "lat": 40.2592849731445, "lng": -3.70291137695313, "feed": "mdb-791"}, {"name": "ALCOTANES-PALOMAS", "lat": 40.2495422363281, "lng": -3.71101760864258, "feed": "mdb-791"}, {"name": "GRULLAS-ALCOTANES", "lat": 40.253662109375, "lng": -3.71189546585083, "feed": "mdb-791"}, {"name": "AVUTARDAS-GRULLAS", "lat": 40.2535781860352, "lng": -3.71665692329407, "feed": "mdb-791"}, {"name": "PALOMAS-BUHOS", "lat": 40.2496223449707, "lng": -3.71586275100708, "feed": "mdb-791"}, {"name": "ALCOTANES-PALOMAS", "lat": 40.2495193481445, "lng": -3.71164059638977, "feed": "mdb-791"}, {"name": "AV.JUAN PABLO II-MANUEL DE FALLA", "lat": 40.2590293884277, "lng": -3.69911050796509, "feed": "mdb-791"}, {"name": "CATALUÑA-RIOJA", "lat": 40.2494163513184, "lng": -3.69794154167175, "feed": "mdb-791"}, {"name": "TANATORIO CEMENTERIO", "lat": 40.2580490112305, "lng": -3.72815775871277, "feed": "mdb-791"}, {"name": "AV.JUAN PABLO II-MATILDE SALVADOR", "lat": 40.2590255737305, "lng": -3.70276761054993, "feed": "mdb-791"}, {"name": "PABLO PICASSO-INSTITUTO", "lat": 40.238639831543, "lng": -3.69358682632446, "feed": "mdb-791"}, {"name": "CASTILLA-SANTO ÁNGEL", "lat": 40.2475814819336, "lng": -3.6984281539917, "feed": "mdb-791"}, {"name": "ALPUJARRAS-C.C.PLAZA ÉBOLI", "lat": 40.2411727905273, "lng": -3.69318962097168, "feed": "mdb-791"}, {"name": "ALPUJARRAS-SAN JUAN", "lat": 40.2455406188965, "lng": -3.69331645965576, "feed": "mdb-791"}, {"name": "ASTURIAS-PISCINA", "lat": 40.252368927002, "lng": -3.69224548339844, "feed": "mdb-791"}, {"name": "HISPANIDAD-PASEO DE LAS ARTES", "lat": 40.2555274963379, "lng": -3.69392395019531, "feed": "mdb-791"}, {"name": "AV.JUAN PABLO II-MANUEL DE FALLA", "lat": 40.2593078613281, "lng": -3.69911336898804, "feed": "mdb-791"}, {"name": "PºDEL PRADO-PISCINA MUNICIPAL", "lat": 40.1923446655273, "lng": -3.6600444316864, "feed": "mdb-791"}, {"name": "CºVALTIJAREJO-RECINTO FERIAL", "lat": 40.1937446594238, "lng": -3.65638065338135, "feed": "mdb-791"}, {"name": "RONDA HISPANOAMERICANA-PºMADRID", "lat": 40.3490943908691, "lng": -3.2687361240387, "feed": "mdb-791"}, {"name": "RONDA HISPANOAMERICANA-CINCO", "lat": 40.3533248901367, "lng": -3.24981689453125, "feed": "mdb-791"}, {"name": "RONDA HISPANOAMERICANA-CASA JUVENTUD", "lat": 40.3598785400391, "lng": -3.24330472946167, "feed": "mdb-791"}, {"name": "ALALPARDO-CONSERVATORIO", "lat": 40.4907875061035, "lng": -3.36974215507507, "feed": "mdb-791"}, {"name": "PZA.PUERTA DEL VADO-PºLAS MORERAS", "lat": 40.4770779356271, "lng": -3.366786443771, "feed": "mdb-791"}, {"name": "LUIS VIVES-CENTRO DE SALUD", "lat": 40.4752998352051, "lng": -3.3677225112915, "feed": "mdb-791"}, {"name": "VALVERDE DE ALCALÁ-CTRA.DE TORRES", "lat": 40.417911529541, "lng": -3.29985690116882, "feed": "mdb-791"}, {"name": "CTRA.M300-EL GURUGÚ", "lat": 40.4511604309082, "lng": -3.34598588943481, "feed": "mdb-791"}, {"name": "CTRA.M300-EL GURUGÚ", "lat": 40.4520988464355, "lng": -3.34568405151367, "feed": "mdb-791"}, {"name": "ALAMEDA-BAÑOS", "lat": 40.4083290100098, "lng": -3.36357450485229, "feed": "mdb-791"}, {"name": "RONDA HISPANOAMERICANA-NUEVE", "lat": 40.350887298584, "lng": -3.26071214675903, "feed": "mdb-791"}, {"name": "CTRA.M219-URB.LAS VILLAS", "lat": 40.3649787902832, "lng": -3.26778626441956, "feed": "mdb-791"}, {"name": "CTRA.M204-COLONIA SAN FRANCISCO", "lat": 40.3644371032715, "lng": -3.24358034133911, "feed": "mdb-791"}, {"name": "PILILLA-PZA.JOSÉ ANTONIO", "lat": 40.3363609313965, "lng": -3.23655676841736, "feed": "mdb-791"}, {"name": "VÍA COMPLUTENSE-SAN BERNARDO", "lat": 40.4838714599609, "lng": -3.36988115310669, "feed": "mdb-791"}, {"name": "VÍA COMPLUTENSE-SAN BERNARDO", "lat": 40.484058380127, "lng": -3.36998844146729, "feed": "mdb-791"}, {"name": "MADRID-REAL", "lat": 40.407787322998, "lng": -3.36460876464844, "feed": "mdb-791"}, {"name": "CTRA.M219-URB.EUROVILLAS", "lat": 40.3646202087402, "lng": -3.26721954345703, "feed": "mdb-791"}, {"name": "RONDA HISPANOAMERICANA-CINCO", "lat": 40.3533897399902, "lng": -3.24889874458313, "feed": "mdb-791"}, {"name": "RONDA HISPANOAMERICANA-CASA JUVENTUD", "lat": 40.359977722168, "lng": -3.24309325218201, "feed": "mdb-791"}, {"name": "MAYOR-PZA.VILLA", "lat": 40.368724822998, "lng": -3.22189950942993, "feed": "mdb-791"}, {"name": "GRAN VÍA-ESTACIÓN DE SERVICIO", "lat": 40.2826614379883, "lng": -3.20699548721313, "feed": "mdb-791"}, {"name": "AV.MADRID-SAN ISIDRO", "lat": 40.3266487121582, "lng": -3.18348097801209, "feed": "mdb-791"}, {"name": "AV.MADRID-VIRGEN DEL ROSARIO", "lat": 40.3265838623047, "lng": -3.18371629714966, "feed": "mdb-791"}, {"name": "CTRA.M204-URB.EL MIRADOR DE BAZTÁN", "lat": 40.3751831054688, "lng": -3.24875497817993, "feed": "mdb-791"}, {"name": "CTRA.M204-URB.EL MIRADOR DE BAZTÁN", "lat": 40.375904083252, "lng": -3.24902868270874, "feed": "mdb-791"}, {"name": "CTRA.M-219-TRVA.JOSÉ CHURRIGUERA", "lat": 40.3657417297363, "lng": -3.24429178237915, "feed": "mdb-791"}, {"name": "TRVA.JOSÉ CHURRIGUERA-IGLESIA", "lat": 40.3661499023438, "lng": -3.24409294128418, "feed": "mdb-791"}, {"name": "PZA.VILLA-MAYOR", "lat": 40.368824005127, "lng": -3.22191143035889, "feed": "mdb-791"}, {"name": "CTRA.M215-COMUNIDAD TERAPÉUTICA", "lat": 40.3208427429199, "lng": -3.18945646286011, "feed": "mdb-791"}, {"name": "RONDA HISPANOAMERICANA-RONDA MANCHESTER", "lat": 40.3570137023926, "lng": -3.27145266532898, "feed": "mdb-791"}, {"name": "CTRA.M204-URB.MONTEACEVEDO", "lat": 40.3875465393066, "lng": -3.259934425354, "feed": "mdb-791"}, {"name": "CTRA.M215-MOLINO DEL PUENTE", "lat": 40.3271675109863, "lng": -3.17979788780212, "feed": "mdb-791"}, {"name": "CTRA.M204-CºBELLAESCUSA", "lat": 40.2950172424316, "lng": -3.19938516616821, "feed": "mdb-791"}, {"name": "CTRA.M204-CºBELLAESCUSA", "lat": 40.2950057983398, "lng": -3.19913816452026, "feed": "mdb-791"}, {"name": "PºPASTRANA-RÍO TER", "lat": 40.467601776123, "lng": -3.36587572097778, "feed": "mdb-791"}, {"name": "PºPASTRANA-BOLARQUE", "lat": 40.4709548950195, "lng": -3.36602354049683, "feed": "mdb-791"}, {"name": "CTRA.M204-URB.MONTEACEVEDO", "lat": 40.3876113891602, "lng": -3.25975799560547, "feed": "mdb-791"}, {"name": "MAYOR-PINTOR ÁLVARO DELGADO", "lat": 40.3675689697266, "lng": -3.21928071975708, "feed": "mdb-791"}, {"name": "MAYOR-PINTOR ÁLVARO DELGADO", "lat": 40.3675231933594, "lng": -3.21941018104553, "feed": "mdb-791"}, {"name": "RONDA HISPANOAMERICANA-COMUNIDAD EUROPEA", "lat": 40.3500938415527, "lng": -3.27276730537415, "feed": "mdb-791"}, {"name": "RONDA HISPANOAMERICANA-COMUNIDAD EUROPEA", "lat": 40.3503265380859, "lng": -3.27275633811951, "feed": "mdb-791"}, {"name": "PºPASTRANA-RONDA FISCAL", "lat": 40.4747641038143, "lng": -3.36632556414709, "feed": "mdb-791"}, {"name": "RONDA HISPANOAMERICANA-SIETE", "lat": 40.3522262573242, "lng": -3.25455856323242, "feed": "mdb-791"}, {"name": "RONDA HISPANOAMERICANA-SIETE", "lat": 40.3520164489746, "lng": -3.25517010688782, "feed": "mdb-791"}, {"name": "TORRELAGUNA-GTA.CHORRILLO", "lat": 40.4887063918936, "lng": -3.37305628301206, "feed": "mdb-791"}, {"name": "AMBITE-URB.SIERRA TAJUÑA", "lat": 40.3270530700684, "lng": -3.17721962928772, "feed": "mdb-791"}, {"name": "RONDA MANCHESTER-RONDA HISPANOAMERICANA", "lat": 40.3559608459473, "lng": -3.27130699157715, "feed": "mdb-791"}, {"name": "AV.FRONTERAS-MADRID", "lat": 40.4608917236328, "lng": -3.48375153541565, "feed": "mdb-791"}, {"name": "CTRA.LOECHES-JOAQUÍN BLUME", "lat": 40.4473075866699, "lng": -3.46792316436768, "feed": "mdb-791"}, {"name": "CTRA.LOECHES-JOAQUÍN BLUME", "lat": 40.447624206543, "lng": -3.46787810325623, "feed": "mdb-791"}, {"name": "AV.CONSTITUCIÓN-PZA.FUENTE AMARGA", "lat": 40.3850860595703, "lng": -3.41254305839539, "feed": "mdb-791"}, {"name": "AV.AMÉRICA-CANILLEJAS", "lat": 40.4500885009766, "lng": -3.60798239707947, "feed": "mdb-791"}, {"name": "RDA.STA.SUSANA-MAYOR", "lat": 40.4033317565918, "lng": -3.36066031455994, "feed": "mdb-791"}, {"name": "COMUNIDAD EUROPEA-AV.LUXEMBURGO", "lat": 40.3545150756836, "lng": -3.26615500450134, "feed": "mdb-791"}, {"name": "COMUNIDAD EUROPEA-URB.EUROVILLAS", "lat": 40.3622550964355, "lng": -3.26196908950806, "feed": "mdb-791"}, {"name": "REAL-NUEVA", "lat": 40.3654823303223, "lng": -3.32120203971863, "feed": "mdb-791"}, {"name": "PºLOS POZOS-MADRID", "lat": 40.4067115783691, "lng": -3.36515688896179, "feed": "mdb-791"}, {"name": "REAL-NUEVA", "lat": 40.3652229309082, "lng": -3.32041168212891, "feed": "mdb-791"}, {"name": "NUEVE-AV.BRUSELAS", "lat": 40.3622627258301, "lng": -3.26174545288086, "feed": "mdb-791"}, {"name": "COMUNIDAD EUROPEA-CENTRO COMERCIAL", "lat": 40.3553428649902, "lng": -3.26541638374329, "feed": "mdb-791"}, {"name": "CTRA.M206-POL.IND.EL CABALLO", "lat": 40.3947296142578, "lng": -3.41361546516418, "feed": "mdb-791"}, {"name": "CANTO-AV.CONSTITUCIÓN", "lat": 40.4550590515137, "lng": -3.48402810096741, "feed": "mdb-791"}, {"name": "PºLOS POZOS-CONCEPCIÓN", "lat": 40.4064254760742, "lng": -3.36521410942078, "feed": "mdb-791"}, {"name": "AV.CONSTITUCIÓN-VIRGEN DE LAS ANGUSTIAS", "lat": 40.3841781616211, "lng": -3.41130065917969, "feed": "mdb-791"}, {"name": "CTRA.M219-RESIDENCIA TERCERA EDAD", "lat": 40.3692054748535, "lng": -3.29610729217529, "feed": "mdb-791"}, {"name": "CTRA.M219-RESIDENCIA TERCERA EDAD", "lat": 40.3694229125977, "lng": -3.29621434211731, "feed": "mdb-791"}, {"name": "AV.CONSTITUCIÓN-VIRGEN DE LAS ANGUSTIAS", "lat": 40.3845367431641, "lng": -3.41202139854431, "feed": "mdb-791"}, {"name": "INTERCAMBIADOR DE AVENIDA AMÉRICA", "lat": 40.4384384155273, "lng": -3.67649960517883, "feed": "mdb-791"}, {"name": "AV.CENTRAL-CINCO", "lat": 40.3862419128418, "lng": -3.26324009895325, "feed": "mdb-791"}, {"name": "RDA.STA.SUSANA-MAYOR", "lat": 40.4034652709961, "lng": -3.36084961891174, "feed": "mdb-791"}, {"name": "DERBI-ROA", "lat": 40.4003982543945, "lng": -3.41823410987854, "feed": "mdb-791"}, {"name": "ARGANDA-ESTRELLA", "lat": 40.3819732666016, "lng": -3.41136956214905, "feed": "mdb-791"}, {"name": "ARGANDA-VIRGEN DEL ROSARIO", "lat": 40.3819007873535, "lng": -3.41113352775574, "feed": "mdb-791"}, {"name": "ARGANDA-ANTONIO MACHADO", "lat": 40.379150390625, "lng": -3.41240096092224, "feed": "mdb-791"}, {"name": "AVDA.AMERICA-FCO.SILVELA", "lat": 40.4375610351563, "lng": -3.67684459686279, "feed": "mdb-791"}, {"name": "AV.AMERICA-FCO.SILVELA", "lat": 40.4378318786621, "lng": -3.67691802978516, "feed": "mdb-791"}, {"name": "AV.AMERICA-ARTURO SORIA", "lat": 40.4478378295898, "lng": -3.65236043930054, "feed": "mdb-791"}, {"name": "CTRA.M225-GTA.LAS CONEJERAS", "lat": 40.4067306518555, "lng": -3.36835074424744, "feed": "mdb-791"}, {"name": "MADRID-POL.IND.LOS VALLEJOS", "lat": 40.4075660705566, "lng": -3.37158465385437, "feed": "mdb-791"}, {"name": "MAYOR-RUBENS", "lat": 40.4005012512207, "lng": -3.35798215866089, "feed": "mdb-791"}, {"name": "MAYOR-SAUCES", "lat": 40.4008522033691, "lng": -3.35834932327271, "feed": "mdb-791"}, {"name": "DERBI-ROA", "lat": 40.3995971679688, "lng": -3.41776967048645, "feed": "mdb-791"}, {"name": "ROMA-AMSTERDAM", "lat": 40.3881912231445, "lng": -3.41564893722534, "feed": "mdb-791"}, {"name": "ARGANDA-ANTONIO MACHADO", "lat": 40.3791656494141, "lng": -3.41217732429504, "feed": "mdb-791"}, {"name": "PºLOS POZOS-ANTONIO MACHADO", "lat": 40.4041328430176, "lng": -3.36336350440979, "feed": "mdb-791"}, {"name": "C7-C19", "lat": 40.3833847045898, "lng": -3.26390051841736, "feed": "mdb-791"}, {"name": "CTRA.M206-LA RUEDA", "lat": 40.4236221313477, "lng": -3.43285393714905, "feed": "mdb-791"}, {"name": "AV.FRONTERAS-AV.CONSTITUCIÓN", "lat": 40.4559288024902, "lng": -3.48323225975037, "feed": "mdb-791"}, {"name": "AV.EUROPA-ATENAS", "lat": 40.3915557861328, "lng": -3.41497445106506, "feed": "mdb-791"}, {"name": "AV.EUROPA-PARÍS", "lat": 40.3921051025391, "lng": -3.41436529159546, "feed": "mdb-791"}, {"name": "AV.EUROPA-DUBLÍN", "lat": 40.3892059326172, "lng": -3.4164092540741, "feed": "mdb-791"}, {"name": "CTRA.M225-ATENAS", "lat": 40.4073753356934, "lng": -3.37184286117554, "feed": "mdb-791"}, {"name": "CTRA.M225-MILÁN", "lat": 40.4090042114258, "lng": -3.38165736198425, "feed": "mdb-791"}, {"name": "CTRA.M225-GTA.LAS CONEJERAS", "lat": 40.4071235656738, "lng": -3.36891865730286, "feed": "mdb-791"}, {"name": "DERBI-CAÑADA DEL POZO", "lat": 40.3986930847168, "lng": -3.41682124137878, "feed": "mdb-791"}, {"name": "OLMO-ACACIA", "lat": 40.367057800293, "lng": -3.3157913684845, "feed": "mdb-791"}, {"name": "CANILLEJAS", "lat": 40.4494018554688, "lng": -3.60967421531677, "feed": "mdb-791"}, {"name": "AV.MEDITERRÁNEO-SANTA EUGENIA", "lat": 40.3819923400879, "lng": -3.6034369468689, "feed": "mdb-791"}, {"name": "CTRA.A3-VALDEMINGÓMEZ", "lat": 40.3590660095215, "lng": -3.56211948394775, "feed": "mdb-791"}, {"name": "CTRA.A3-VIVEROS", "lat": 40.3134117126465, "lng": -3.49678492546082, "feed": "mdb-791"}, {"name": "AV.MADRID-CºESTRECHILLO", "lat": 40.3100433349609, "lng": -3.48096704483032, "feed": "mdb-791"}, {"name": "AV.MADRID-AV.FINANZAUTO", "lat": 40.3071403503418, "lng": -3.46889615058899, "feed": "mdb-791"}, {"name": "AV.MADRID-CºDEL VALLE", "lat": 40.3061676025391, "lng": -3.46417045593262, "feed": "mdb-791"}, {"name": "AV.MADRID-LA PERLA", "lat": 40.304615020752, "lng": -3.4560284614563, "feed": "mdb-791"}, {"name": "AV.EJÉRCITO-VEREDA DEL MELERO", "lat": 40.3024673461914, "lng": -3.44744753837585, "feed": "mdb-791"}, {"name": "AV.EJÉRCITO-PZA.BIENVENIDA", "lat": 40.301082611084, "lng": -3.442143201828, "feed": "mdb-791"}, {"name": "CTRA.LOECHES-ZOCO", "lat": 40.3024444580078, "lng": -3.4418580532074, "feed": "mdb-791"}, {"name": "CTRA.LOECHES-PARQUE", "lat": 40.3034210205078, "lng": -3.44334697723389, "feed": "mdb-791"}, {"name": "AV.MADRID-LA PERLA", "lat": 40.3048057556152, "lng": -3.45538258552551, "feed": "mdb-791"}, {"name": "AV.MADRID-LAS PALMAS", "lat": 40.3077125549316, "lng": -3.47000622749329, "feed": "mdb-791"}, {"name": "CºDE LOS CANES-AV.MADRID", "lat": 40.31005859375, "lng": -3.47956681251526, "feed": "mdb-791"}, {"name": "AV.MADRID-CTRA.CAMPO REAL", "lat": 40.3116683959961, "lng": -3.48642754554749, "feed": "mdb-791"}, {"name": "AV.MADRID-VIVEROS", "lat": 40.3139724731445, "lng": -3.49561214447021, "feed": "mdb-791"}, {"name": "CTRA.A3-PUENTE DE ARGANDA", "lat": 40.3179588317871, "lng": -3.51187443733215, "feed": "mdb-791"}, {"name": "CTRA.A3-VALDEMINGÓMEZ", "lat": 40.3596458435059, "lng": -3.5612998008728, "feed": "mdb-791"}, {"name": "AV.MEDITERRÁNEO-SANTA EUGENIA", "lat": 40.3853797912598, "lng": -3.60516381263733, "feed": "mdb-791"}, {"name": "CTRA.A3-PUENTE DE ARGANDA", "lat": 40.3172569274902, "lng": -3.51155138015747, "feed": "mdb-791"}, {"name": "REAL-ZARZA", "lat": 40.2993469238281, "lng": -3.43418955802917, "feed": "mdb-791"}, {"name": "PZA.CONSTITUCIÓN-JUAN DE LA CIERVA", "lat": 40.300952911377, "lng": -3.43807101249695, "feed": "mdb-791"}, {"name": "AV.MADRID-CENTRO COMERCIAL", "lat": 40.3093948364258, "lng": -3.47698473930359, "feed": "mdb-791"}, {"name": "AV.MADRID-CENTRO COMERCIAL", "lat": 40.3091125488281, "lng": -3.47727704048157, "feed": "mdb-791"}, {"name": "AV.EJÉRCITO-POL.IND.SAN SEBASTIÁN", "lat": 40.3041229248047, "lng": -3.45285964012146, "feed": "mdb-791"}, {"name": "SANTIAGO APOSTOL-SAN JOSÉ", "lat": 40.2994842529297, "lng": -3.44069743156433, "feed": "mdb-791"}, {"name": "MAR DE ALBORÁN-CONSERVATORIO", "lat": 40.2963638305664, "lng": -3.43218207359314, "feed": "mdb-791"}, {"name": "VALDEMARÍA-GALEÓN", "lat": 40.2935028076172, "lng": -3.43557572364807, "feed": "mdb-791"}, {"name": "PEÑÓN DE GIBRALTAR-ANTONIO MACHADO", "lat": 40.2974624633789, "lng": -3.44128441810608, "feed": "mdb-791"}, {"name": "VALDEMARÍA-CANOA", "lat": 40.2938270568848, "lng": -3.43307185173035, "feed": "mdb-791"}, {"name": "AV.INSTITUTO-COLONIA LOS ALMENDROS", "lat": 40.292896270752, "lng": -3.4432430267334, "feed": "mdb-791"}, {"name": "PEÑÓN DE GIBRALTAR-PERLITA", "lat": 40.2962188720703, "lng": -3.44177031517029, "feed": "mdb-791"}, {"name": "REAL-GUARDIA CIVIL", "lat": 40.2986793518066, "lng": -3.43212604522705, "feed": "mdb-791"}, {"name": "AV.INSTITUTO-AV.VALDEMARÍA", "lat": 40.2954330444336, "lng": -3.44193005561829, "feed": "mdb-791"}, {"name": "CTRA. LOECHES-PLAZA DEL PROGRESO", "lat": 40.3060913085938, "lng": -3.4465537071228, "feed": "mdb-791"}, {"name": "VALDEMARÍA-SATURNO", "lat": 40.2945022583008, "lng": -3.44062972068787, "feed": "mdb-791"}, {"name": "AV.MADRID-DEL SOL", "lat": 40.3109550476074, "lng": -3.4848690032959, "feed": "mdb-791"}, {"name": "CTRA.A3-EST.RIVAS VACIAMADRID", "lat": 40.3267784118652, "lng": -3.52136993408203, "feed": "mdb-791"}, {"name": "CTRA.A3-EST.RIVAS VACIAMADRID", "lat": 40.326774597168, "lng": -3.52048444747925, "feed": "mdb-791"}, {"name": "AV.MEDITERRÁNEO-AV.DEMOCRACIA", "lat": 40.3910179138184, "lng": -3.62432551383972, "feed": "mdb-791"}, {"name": "AV.MEDITERRÁNEO-AV.DEMOCRACIA", "lat": 40.3916397094727, "lng": -3.62400126457214, "feed": "mdb-791"}, {"name": "AV.MEDITERRÁNEO-AV.PABLO NERUDA", "lat": 40.394603729248, "lng": -3.64083123207092, "feed": "mdb-791"}, {"name": "FUENTE CARRANTONA-HACIENDA DE PAVONES", "lat": 40.4014511108398, "lng": -3.63553428649902, "feed": "mdb-791"}, {"name": "FUENTE CARRANTONA-EST. PAVONES", "lat": 40.4019012451172, "lng": -3.6357250213623, "feed": "mdb-791"}, {"name": "FUENTE CARRANTONA-ARROYO FONTARRÓN", "lat": 40.3963623046875, "lng": -3.63893890380859, "feed": "mdb-791"}, {"name": "AV.MEDITERRÁNEO-UNIV.POLITÉCNICA MADRID", "lat": 40.3911476135254, "lng": -3.62709546089172, "feed": "mdb-791"}, {"name": "GRAN VÍA-MONTE POTRERO", "lat": 40.3158187866211, "lng": -3.4806432723999, "feed": "mdb-791"}, {"name": "MONTE POTRERO-IBIZA", "lat": 40.3142547607422, "lng": -3.47761917114258, "feed": "mdb-791"}, {"name": "CTRA.M300-CºESTRECHILLO", "lat": 40.3132095336914, "lng": -3.486332654953, "feed": "mdb-791"}, {"name": "CTRA.M300-CºESTRECHILLO", "lat": 40.313175201416, "lng": -3.48613238334656, "feed": "mdb-791"}, {"name": "AV.CAÑAL-MONTE POTRERO", "lat": 40.3127059936523, "lng": -3.4733715057373, "feed": "mdb-791"}, {"name": "AV.CAÑAL-CABO DE LA NAO", "lat": 40.309455871582, "lng": -3.47471380233765, "feed": "mdb-791"}, {"name": "AV.CAÑAL-CABO DE LA NAO", "lat": 40.3102416992188, "lng": -3.47416639328003, "feed": "mdb-791"}, {"name": "CTRA.M209-BARRIO DE LA VIRGEN", "lat": 40.3352813720703, "lng": -3.38725757598877, "feed": "mdb-791"}, {"name": "GTA.SAN SEBASTIÁN-AV.ARGANDA", "lat": 40.3398628234863, "lng": -3.37688779830933, "feed": "mdb-791"}, {"name": "PZA.MAYOR-AYUNTAMIENTO", "lat": 40.3383636474609, "lng": -3.38129448890686, "feed": "mdb-791"}, {"name": "ALCALÁ-MIGUEL DE CERVANTES", "lat": 40.2938079833984, "lng": -3.3002724647522, "feed": "mdb-791"}, {"name": "AV.ALCALÁ DE HENARES-URB.LOS VILLARES", "lat": 40.3109931945801, "lng": -3.44869256019592, "feed": "mdb-791"}, {"name": "CTRA.M209-BARRIO DE LA VIRGEN", "lat": 40.3350524902344, "lng": -3.38755059242249, "feed": "mdb-791"}, {"name": "CTRA.M209-URB.MONTEHERMOSO", "lat": 40.333927154541, "lng": -3.3951141834259, "feed": "mdb-791"}, {"name": "ALCALÁ-ESPINO", "lat": 40.2977409362793, "lng": -3.3016664981842, "feed": "mdb-791"}, {"name": "ALCALÁ-CAÑADA", "lat": 40.2974433898926, "lng": -3.30145335197449, "feed": "mdb-791"}, {"name": "RDA.SUR-AV.EJÉRCITO", "lat": 40.3036956787109, "lng": -3.45133900642395, "feed": "mdb-791"}, {"name": "REYES MAGOS-INSTITUTO", "lat": 40.3143615722656, "lng": -3.47600746154785, "feed": "mdb-791"}, {"name": "CTRA.LOECHES-DR.ESCRIBANO ORTÍZ", "lat": 40.3044853210449, "lng": -3.44526028633118, "feed": "mdb-791"}, {"name": "REAL-AV.VALENCIA", "lat": 40.2975769042969, "lng": -3.42978930473328, "feed": "mdb-791"}, {"name": "PºESTACIÓN-EST.ARGANDA DEL REY", "lat": 40.3035202026367, "lng": -3.44770169258118, "feed": "mdb-791"}, {"name": "AV.VALDEARGANDA-PZA.PROGRESO", "lat": 40.3076248168945, "lng": -3.44811701774597, "feed": "mdb-791"}, {"name": "AV.VALDEARGANDA-PZA.PROGRESO", "lat": 40.3070030212402, "lng": -3.44870138168335, "feed": "mdb-791"}, {"name": "RONDA SUR-HOSPITAL DEL SURESTE", "lat": 40.2962379455566, "lng": -3.45733714103699, "feed": "mdb-791"}, {"name": "CTRA.VILLAR DEL OLMO-PISCINA MUNICIPAL", "lat": 40.3391036987305, "lng": -3.3721034526825, "feed": "mdb-791"}, {"name": "AV.LISBOA-PZA.ESTOCOLMO", "lat": 40.3018112182617, "lng": -3.45156168937683, "feed": "mdb-791"}, {"name": "AV.LISBOA-PZA.ESTOCOLMO", "lat": 40.3019638061523, "lng": -3.45125675201416, "feed": "mdb-791"}, {"name": "AV.ROMA-AV.HAYA", "lat": 40.2993049621582, "lng": -3.45229816436768, "feed": "mdb-791"}, {"name": "AV.LONDRES-AV.HAYA", "lat": 40.2993698120117, "lng": -3.451416015625, "feed": "mdb-791"}, {"name": "PRAGA-PZA.BRATISLAVA", "lat": 40.2974853515625, "lng": -3.45176815986633, "feed": "mdb-791"}, {"name": "CTRA.VILLAR DEL OLMO-LOS ALTOS", "lat": 40.3398513793945, "lng": -3.36962342262268, "feed": "mdb-791"}, {"name": "PRAGA-PZA.BRATISLAVA", "lat": 40.2981986999512, "lng": -3.45143175125122, "feed": "mdb-791"}, {"name": "IES CAMPO REAL", "lat": 40.3329772949219, "lng": -3.3752601146698, "feed": "mdb-791"}, {"name": "HACIENDA DE PAVONES-INTERCAMBIADOR", "lat": 40.4004745483398, "lng": -3.63521671295166, "feed": "mdb-791"}, {"name": "FUENTE CARRANTONA-HACIENDA DE PAVONES", "lat": 40.4004287719727, "lng": -3.63641834259033, "feed": "mdb-791"}, {"name": "PZA.VILLA-AYUNTAMIENTO", "lat": 40.3836117116779, "lng": -3.40912699046613, "feed": "mdb-791"}, {"name": "LOS HUEROS-MAYOR", "lat": 40.4418601989746, "lng": -3.35306024551392, "feed": "mdb-791"}, {"name": "CTRA.LOECHES-VIRGEN DE GUADALUPE", "lat": 40.3040161132813, "lng": -3.44490432739258, "feed": "mdb-791"}, {"name": "MAYOR-URB.LA ALCAZABA", "lat": 40.4457855224609, "lng": -3.35085201263428, "feed": "mdb-791"}, {"name": "CTRA.M300-PUERTO DE COTOS", "lat": 40.3176498413086, "lng": -3.4806797504425, "feed": "mdb-791"}, {"name": "CTRA.M300-BREZO", "lat": 40.3197402954102, "lng": -3.46702933311462, "feed": "mdb-791"}, {"name": "RONDA SUR-SIETE VIENTOS", "lat": 40.2964515686035, "lng": -3.4471607208252, "feed": "mdb-791"}, {"name": "CTRA.M204-ESTACIÓN", "lat": 40.2469100952148, "lng": -3.31117606163025, "feed": "mdb-791"}, {"name": "CTRA.M204-PºESTACIÓN", "lat": 40.2458229064941, "lng": -3.31324028968811, "feed": "mdb-791"}, {"name": "REAL-CENTRO DE SALUD", "lat": 40.2443771362305, "lng": -3.31860661506653, "feed": "mdb-791"}, {"name": "AV.TIELMES-QUIOSCO", "lat": 40.2561912536621, "lng": -3.23480749130249, "feed": "mdb-791"}, {"name": "AV.TIELMES-SANTA LUCÍA", "lat": 40.2532424926758, "lng": -3.23557329177856, "feed": "mdb-791"}, {"name": "AV.FERROCARRIL-ESTACIÓN DE SERVICIO", "lat": 40.2427825927734, "lng": -3.31918716430664, "feed": "mdb-791"}, {"name": "PºESTACIÓN-TREN", "lat": 40.2468681335449, "lng": -3.31002354621887, "feed": "mdb-791"}, {"name": "PZA.CONSTITUCIÓN-AYUNTAMIENTO", "lat": 40.2459106445313, "lng": -3.315345287323, "feed": "mdb-791"}, {"name": "AV.TIELMES-ESTACIÓN DE SERVICIO", "lat": 40.2563438415527, "lng": -3.23496079444885, "feed": "mdb-791"}, {"name": "GRAN VÍA-ESTACIÓN DE SERVICIO", "lat": 40.2825050354004, "lng": -3.20768904685974, "feed": "mdb-791"}, {"name": "AV.TIELMES-PISCINAS", "lat": 40.2580223083496, "lng": -3.23327326774597, "feed": "mdb-791"}, {"name": "AV.TIELMES-PISCINAS", "lat": 40.2582931518555, "lng": -3.23273324966431, "feed": "mdb-791"}, {"name": "CTRA.N3-ESTACIÓN COMUNICACIONES", "lat": 40.262809753418, "lng": -3.39000773429871, "feed": "mdb-791"}, {"name": "CTRA.N3-ESTACIÓN COMUNICACIONES", "lat": 40.2626724243164, "lng": -3.39014792442322, "feed": "mdb-791"}, {"name": "CTRA.M204-EL BACHE", "lat": 40.2464942932129, "lng": -3.27331495285034, "feed": "mdb-791"}, {"name": "CTRA-M204-EL BACHE", "lat": 40.2464981079102, "lng": -3.27534914016724, "feed": "mdb-791"}, {"name": "CTRA.M204-MANANTIAL DE AGUAS", "lat": 40.2452354431152, "lng": -3.25977730751038, "feed": "mdb-791"}, {"name": "CTRA.M204-MANANTIAL DE AGUAS", "lat": 40.2450637817383, "lng": -3.25990605354309, "feed": "mdb-791"}, {"name": "CTRA.M204-CASAS LAS LADERAS", "lat": 40.2708969116211, "lng": -3.22353172302246, "feed": "mdb-791"}, {"name": "CTRA.M204-CASAS LAS LADERAS", "lat": 40.2696723937988, "lng": -3.22365713119507, "feed": "mdb-791"}, {"name": "CTRA.M204-SIFÓN", "lat": 40.247730255127, "lng": -3.30086827278137, "feed": "mdb-791"}, {"name": "CTRAM.204-HUERTA DEL PAVO", "lat": 40.2478561401367, "lng": -3.30117464065552, "feed": "mdb-791"}, {"name": "CTRA.M204-LA VENTA", "lat": 40.2468376159668, "lng": -3.24874305725098, "feed": "mdb-791"}, {"name": "CTRA.M204-LA VENTA", "lat": 40.2467308044434, "lng": -3.24827241897583, "feed": "mdb-791"}, {"name": "CTRA.M204-CASA DE LA LUZ", "lat": 40.2477645874023, "lng": -3.24128031730652, "feed": "mdb-791"}, {"name": "CTRA.M204-CASILLA DE LA LUZ", "lat": 40.247673034668, "lng": -3.24172687530518, "feed": "mdb-791"}, {"name": "CTRA.N3-PERALES DE TAJUÑA", "lat": 40.2346382141113, "lng": -3.3503360748291, "feed": "mdb-791"}, {"name": "CTRA.N3-PERALES DE TAJUÑA", "lat": 40.2346992492676, "lng": -3.35004234313965, "feed": "mdb-791"}, {"name": "AV.TIELMES-CºVALHONDO", "lat": 40.2609062194824, "lng": -3.22942590713501, "feed": "mdb-791"}, {"name": "MAYOR BAJA-AV.DE LA PAZ", "lat": 40.231330871582, "lng": -3.35038948059082, "feed": "mdb-791"}, {"name": "PZA.CONSTITUCIÓN-AYUNTAMIENTO", "lat": 40.2346954345703, "lng": -3.35239338874817, "feed": "mdb-791"}, {"name": "MAYOR ALTA-RANA", "lat": 40.2376403808594, "lng": -3.35254979133606, "feed": "mdb-791"}, {"name": "CTRA.M215-URB.SIERRA DEL TAJUÑA", "lat": 40.3274841308594, "lng": -3.17717361450195, "feed": "mdb-791"}, {"name": "AV.VALENCIA-URB.EL ROMERAL", "lat": 40.298526763916, "lng": -3.42950129508972, "feed": "mdb-791"}, {"name": "MAYOR ALTA-CºDE LA RANA", "lat": 40.2408332824707, "lng": -3.3533775806427, "feed": "mdb-791"}, {"name": "MONDÉJAR-INSTITUTO", "lat": 40.3211555480957, "lng": -3.10712289810181, "feed": "mdb-791"}, {"name": "MONDEJAR-ERMITA DE SAN ISIDRO", "lat": 40.3242416381836, "lng": -3.10527968406677, "feed": "mdb-791"}, {"name": "MONDEJAR-AV.GUADALAJARA", "lat": 40.3249015808105, "lng": -3.11050724983215, "feed": "mdb-791"}, {"name": "MONDEJAR-EL ESPINAR", "lat": 40.3253326416016, "lng": -3.11362719535828, "feed": "mdb-791"}, {"name": "ALBARES", "lat": 40.3069076538086, "lng": -3.01234459877014, "feed": "mdb-791"}, {"name": "ALMOGUERA-PLAZA DE ESPAÑA", "lat": 40.2986106872559, "lng": -2.98251485824585, "feed": "mdb-791"}, {"name": "MAZUECOS-GENERALISIMO", "lat": 40.2620582580566, "lng": -3.01230120658875, "feed": "mdb-791"}, {"name": "DRIEBES-ALBERCA", "lat": 40.2452239990234, "lng": -3.03823471069336, "feed": "mdb-791"}, {"name": "CTRA.CM215-FÁBRICA LAS MERCEDES", "lat": 40.3472900390625, "lng": -3.14290142059326, "feed": "mdb-791"}, {"name": "CTRA.CM219-FÁBRICA LAS MERCEDES", "lat": 40.3475608825684, "lng": -3.14216017723084, "feed": "mdb-791"}, {"name": "CTRA.M300-MONTE ACHO", "lat": 40.3154296875, "lng": -3.48327684402466, "feed": "mdb-791"}, {"name": "AV.MEDITERRANEO-PZA.CONDE CASAL", "lat": 40.4069290161133, "lng": -3.67081189155579, "feed": "mdb-791"}, {"name": "PZA.CONDE DE CASAL-CONDE DE CASAL", "lat": 40.4066314697266, "lng": -3.67109179496765, "feed": "mdb-791"}, {"name": "AV.MEDITERRÁNEO-TACONA", "lat": 40.3953399658203, "lng": -3.64090895652771, "feed": "mdb-791"}, {"name": "ESTACIÓN DE ATOCHA", "lat": 40.4065093994141, "lng": -3.68986248970032, "feed": "mdb-791"}, {"name": "CºPUENTE VIEJO-SEVILLA", "lat": 40.3050346374512, "lng": -3.45463085174561, "feed": "mdb-791"}, {"name": "AV.VILLARES-AV.VEGA", "lat": 40.3128395080566, "lng": -3.44931674003601, "feed": "mdb-791"}, {"name": "AV.VILLARES-RUISEÑOR", "lat": 40.3144798278809, "lng": -3.45118713378906, "feed": "mdb-791"}, {"name": "AV.INSTITUTO-RESIDENCIA DE ANCIANOS", "lat": 40.2880249023438, "lng": -3.43832874298096, "feed": "mdb-791"}, {"name": "AV.INSTITUTO-BARRIO LOS ALMENDROS", "lat": 40.2910537719727, "lng": -3.44256043434143, "feed": "mdb-791"}, {"name": "ISAAC PERAL-JUAN XXIII", "lat": 40.2985534667969, "lng": -3.43931460380554, "feed": "mdb-791"}, {"name": "PºALMENDROS-GOYA", "lat": 40.2990570068359, "lng": -3.43654108047485, "feed": "mdb-791"}, {"name": "AV.VILLARES-ALCOTÁN", "lat": 40.3157386779785, "lng": -3.45220756530762, "feed": "mdb-791"}, {"name": "AV.EJÉRCITO-CASA DEL REY", "lat": 40.301513671875, "lng": -3.44491124153137, "feed": "mdb-791"}, {"name": "AV.INSTITUTO-BARRIO LOS ALMENDROS", "lat": 40.2911148071289, "lng": -3.44287848472595, "feed": "mdb-791"}, {"name": "CºPUENTE VIEJO-SEVILLA", "lat": 40.3050880432129, "lng": -3.45453715324402, "feed": "mdb-791"}, {"name": "CºPUENTE VIEJO-ÁVILA", "lat": 40.3065376281738, "lng": -3.4595365524292, "feed": "mdb-791"}, {"name": "CºPUENTE VIEJO-ALICANTE", "lat": 40.3064002990723, "lng": -3.45966506004334, "feed": "mdb-791"}, {"name": "CºPUENTE VIEJO-ISLAS BALEARES", "lat": 40.3093376159668, "lng": -3.46246218681335, "feed": "mdb-791"}, {"name": "CºPUENTE VIEJO-SALAMANCA", "lat": 40.3113632202148, "lng": -3.46430015563965, "feed": "mdb-791"}, {"name": "BREZO-PINO", "lat": 40.3146286010742, "lng": -3.46609973907471, "feed": "mdb-791"}, {"name": "BREZO-CHOPO", "lat": 40.3151054382324, "lng": -3.46642065048218, "feed": "mdb-791"}, {"name": "VDA.YEGUAS-AV.GUIJAR", "lat": 40.3166351318359, "lng": -3.4639949798584, "feed": "mdb-791"}, {"name": "AV.GUIJAR-ACACIA", "lat": 40.3184242248535, "lng": -3.46319508552551, "feed": "mdb-791"}, {"name": "REAL-LAS HERAS", "lat": 40.2988891601563, "lng": -3.43350410461426, "feed": "mdb-791"}, {"name": "CºMOLINO-INSTITUTO", "lat": 40.2965240478516, "lng": -3.43259477615356, "feed": "mdb-791"}, {"name": "CºPUENTE VIEJO-ISLAS BALEARES", "lat": 40.3092269897461, "lng": -3.46259093284607, "feed": "mdb-791"}, {"name": "VDA.YEGUAS-AV.GUIJAR", "lat": 40.316520690918, "lng": -3.46392369270325, "feed": "mdb-791"}, {"name": "CºMOLINO-CEMENTERIO", "lat": 40.2885971069336, "lng": -3.42988538742065, "feed": "mdb-791"}, {"name": "GOLETA-GÓNDOLA", "lat": 40.2939796447754, "lng": -3.43590831756592, "feed": "mdb-791"}, {"name": "VALDEMARÍA-VENUS", "lat": 40.2955169677734, "lng": -3.44117760658264, "feed": "mdb-791"}, {"name": "APARCAMIENTO-EST.LA POVEDA", "lat": 40.3189430236816, "lng": -3.47760510444641, "feed": "mdb-791"}, {"name": "CTRA.MORATA-COLONIA LOS ALMENDROS", "lat": 40.2926445007324, "lng": -3.44366478919983, "feed": "mdb-791"}, {"name": "CTRA.M300-BREZO", "lat": 40.3195495605469, "lng": -3.46529793739319, "feed": "mdb-791"}, {"name": "AV.VILLARES-ALCOTÁN", "lat": 40.3157997131348, "lng": -3.45252585411072, "feed": "mdb-791"}, {"name": "ALCOTÁN-CONDOR", "lat": 40.3143882751465, "lng": -3.45350503921509, "feed": "mdb-791"}, {"name": "ALCOTÁN-AV.VALDEARGANDA", "lat": 40.3140640258789, "lng": -3.45337343215942, "feed": "mdb-791"}, {"name": "COMPRENSIÓN-AV.TOLERANCIA", "lat": 40.3091926574707, "lng": -3.44367909431458, "feed": "mdb-791"}, {"name": "AV.VILLARES-COLIBRÍ", "lat": 40.314136505127, "lng": -3.45109057426453, "feed": "mdb-791"}, {"name": "AV.VALDEARGANDA-VENCEJO", "lat": 40.3159599304199, "lng": -3.45533967018127, "feed": "mdb-791"}, {"name": "AV.VALDEARGANDA-CTRA.M300", "lat": 40.3190650939941, "lng": -3.457679271698, "feed": "mdb-791"}, {"name": "AV.VALDEARGANDA-VDA.YEGUAS", "lat": 40.3185768127441, "lng": -3.45824098587036, "feed": "mdb-791"}, {"name": "CºMOLINO-PZA.PESCADORES", "lat": 40.2944526672363, "lng": -3.43264031410217, "feed": "mdb-791"}, {"name": "FELICIDAD-CENTRO DE SALUD", "lat": 40.3107109069824, "lng": -3.44475984573364, "feed": "mdb-791"}, {"name": "FELICIDAD-AV.TOLERANCIA", "lat": 40.3096618652344, "lng": -3.44597697257996, "feed": "mdb-791"}, {"name": "SAN SEBASTIÁN-PZA.NICARAGUA", "lat": 40.3081359863281, "lng": -3.45110964775085, "feed": "mdb-791"}, {"name": "SAN SEBASTIÁN-PZA.NICARAGUA", "lat": 40.308292388916, "lng": -3.45062804222107, "feed": "mdb-791"}, {"name": "TOMÁS EDISON-AV.GALILEO GALILEI", "lat": 40.3185882568359, "lng": -3.46961092948914, "feed": "mdb-791"}, {"name": "SOLIDARIDAD-AV. DE VALENCIA", "lat": 40.3071174621582, "lng": -3.44714879989624, "feed": "mdb-791"}, {"name": "COMPENSIÓN-AV.DERECHOS HUMANOS", "lat": 40.3081092834473, "lng": -3.44398975372314, "feed": "mdb-791"}, {"name": "CTRA.M300-MONTE ACHO", "lat": 40.31591796875, "lng": -3.48297429084778, "feed": "mdb-791"}, {"name": "RONDA SUR-JARDINES LA PERLITA", "lat": 40.2958641052246, "lng": -3.4444625377655, "feed": "mdb-791"}, {"name": "PERLITA-CTRA.MORATA", "lat": 40.2958374023438, "lng": -3.44237971305847, "feed": "mdb-791"}, {"name": "RONDA SUR-LA PERLITA", "lat": 40.2960472106934, "lng": -3.44640517234802, "feed": "mdb-791"}, {"name": "SIETE VIENTOS-RAFAEL ALBERTI", "lat": 40.2974090576172, "lng": -3.44649648666382, "feed": "mdb-791"}, {"name": "RONDA BATRES-CENTRO COMERCIAL", "lat": 40.3028755187988, "lng": -3.44201374053955, "feed": "mdb-791"}, {"name": "RONDA BATRES-CARTAGENA", "lat": 40.3027229309082, "lng": -3.43931818008423, "feed": "mdb-791"}, {"name": "CARRETAS-LIBERTAD", "lat": 40.302074432373, "lng": -3.43731355667114, "feed": "mdb-791"}, {"name": "CARRETERA-REAL", "lat": 40.2999038696289, "lng": -3.43487548828125, "feed": "mdb-791"}, {"name": "PºNAVEGANTES-PZA.MARINA", "lat": 40.2949562072754, "lng": -3.4301962852478, "feed": "mdb-791"}, {"name": "PºNAVEGANTES-PZA.MARINA", "lat": 40.2951545715332, "lng": -3.4303035736084, "feed": "mdb-791"}, {"name": "PºNAVEGANTES-PZA.PUERTA LEVANTE", "lat": 40.2943572998047, "lng": -3.42661571502686, "feed": "mdb-791"}, {"name": "BELÉN-CUESTA DE LOS POETAS", "lat": 40.298454284668, "lng": -3.44327926635742, "feed": "mdb-791"}, {"name": "RONDA SUR-COLEGIO", "lat": 40.2968902587891, "lng": -3.45182299613953, "feed": "mdb-791"}, {"name": "RONDA SUR-COLEGIO", "lat": 40.2967185974121, "lng": -3.45189261436462, "feed": "mdb-791"}, {"name": "AV.REPÚBLICA ARGENTINA-AV.MÉXICO", "lat": 40.3103981018066, "lng": -3.45364308357239, "feed": "mdb-791"}, {"name": "GAVIOTA-OCA", "lat": 40.3116645812988, "lng": -3.44768476486206, "feed": "mdb-791"}, {"name": "GAVIOTA-CONVIVENCIA", "lat": 40.3122520446777, "lng": -3.44497013092041, "feed": "mdb-791"}, {"name": "PºILUSIÓN-GAVIOTA", "lat": 40.311279296875, "lng": -3.442715883255, "feed": "mdb-791"}, {"name": "CONCORDIA-AV.DERECHOS HUMANOS", "lat": 40.3061904907227, "lng": -3.44181180000305, "feed": "mdb-791"}, {"name": "SOLIDARIDAD-AV.DERECHOS HUMANOS", "lat": 40.3081474304199, "lng": -3.44652009010315, "feed": "mdb-791"}, {"name": "CºSANTOS-AV.VEGA", "lat": 40.3171157836914, "lng": -3.44970989227295, "feed": "mdb-791"}, {"name": "CºSANTOS-GOLONDRINAS", "lat": 40.3166542053223, "lng": -3.44602298736572, "feed": "mdb-791"}, {"name": "AV.ALCALÁ DE HENARES-AV.VILLARES", "lat": 40.3123207092285, "lng": -3.44852471351624, "feed": "mdb-791"}, {"name": "SAN SEBASTIÁN-AV.MADRID", "lat": 40.3049583435059, "lng": -3.45347714424133, "feed": "mdb-791"}, {"name": "AV.ALCALÁ DE HENARES-ROSALES", "lat": 40.3150596618652, "lng": -3.44751882553101, "feed": "mdb-791"}, {"name": "AV. DERECHOS HUMANOS-COMPRENSION", "lat": 40.3075828552246, "lng": -3.44357442855835, "feed": "mdb-791"}, {"name": "AV.BURGOS-C.C.SANCHINARRO", "lat": 40.498046875, "lng": -3.66299557685852, "feed": "mdb-791"}, {"name": "AV.BURGOS-DOMINICOS", "lat": 40.5014419555664, "lng": -3.65994882583618, "feed": "mdb-791"}, {"name": "CTRA.A1-CUESTA BLANCA", "lat": 40.5217704772949, "lng": -3.65101075172424, "feed": "mdb-791"}, {"name": "AV.OLÍMPICA-C.C.LA VEGA", "lat": 40.5352478027344, "lng": -3.63698363304138, "feed": "mdb-791"}, {"name": "AV.OLÍMPICA-PABELLÓN DEPORTIVO", "lat": 40.5364875793457, "lng": -3.63275647163391, "feed": "mdb-791"}, {"name": "CTRA.ANTIGUA DE BURGOS-LA GRANJILLA", "lat": 40.5691719055176, "lng": -3.6023485660553, "feed": "mdb-791"}, {"name": "CTRA.ANTIGUA DE BURGOS-CARAVANAS", "lat": 40.5761680603027, "lng": -3.59238028526306, "feed": "mdb-791"}, {"name": "CTRA.A1-URB.FUENTE EL FRESNO", "lat": 40.5890731811523, "lng": -3.58275675773621, "feed": "mdb-791"}, {"name": "CTRA.A1-EL ALEMÁN", "lat": 40.5971450805664, "lng": -3.58106589317322, "feed": "mdb-791"}, {"name": "CTRA.A1-CIRCUITO DEL JARAMA", "lat": 40.6117782592773, "lng": -3.58051896095276, "feed": "mdb-791"}, {"name": "AV.GUADALIX-CENTRO COMERCIAL", "lat": 40.6288299560547, "lng": -3.58259391784668, "feed": "mdb-791"}, {"name": "AV.GUADALIX-AV.MONTE", "lat": 40.6264305114746, "lng": -3.58094143867493, "feed": "mdb-791"}, {"name": "AV.MONTE-CORTA", "lat": 40.6289138793945, "lng": -3.57494425773621, "feed": "mdb-791"}, {"name": "AV.MONTE-ALTA", "lat": 40.6333694458008, "lng": -3.57378816604614, "feed": "mdb-791"}, {"name": "AV.MONTE-CERRO", "lat": 40.637523651123, "lng": -3.57687497138977, "feed": "mdb-791"}, {"name": "AV.MONTE-AV.GUADALIX", "lat": 40.6408195495605, "lng": -3.57525944709778, "feed": "mdb-791"}, {"name": "AV.GUADALIX Nº108", "lat": 40.6398391723633, "lng": -3.5789053440094, "feed": "mdb-791"}, {"name": "AV.GUADALIX-NORTE", "lat": 40.6377296447754, "lng": -3.58294320106506, "feed": "mdb-791"}, {"name": "AV.GUADALIX-CENTRO DEPORTIVO", "lat": 40.6323127746582, "lng": -3.58463430404663, "feed": "mdb-791"}, {"name": "AV.GUADALIX-CENTRO DE SALUD", "lat": 40.6294136047363, "lng": -3.58301281929016, "feed": "mdb-791"}, {"name": "CTRA.A1-URB.CIUDALCAMPO", "lat": 40.6262359619141, "lng": -3.58786845207214, "feed": "mdb-791"}, {"name": "CTRA.A1-CIRCUITO DEL JARAMA", "lat": 40.6107482910156, "lng": -3.58099460601807, "feed": "mdb-791"}, {"name": "CTRA.A1-EL ALEMÁN", "lat": 40.5976371765137, "lng": -3.58181476593018, "feed": "mdb-791"}, {"name": "CTRA.A1-URB.FUENTE EL FRESNO", "lat": 40.5893402099609, "lng": -3.58359813690186, "feed": "mdb-791"}, {"name": "CTRA.ANTIGUA DE BURGOS-GRANJA ESCUELA", "lat": 40.5762100219727, "lng": -3.59282970428467, "feed": "mdb-791"}, {"name": "CTRA.ANTIGUA DE BURGOS-LA GRANJILLA", "lat": 40.5697021484375, "lng": -3.60222339630127, "feed": "mdb-791"}, {"name": "PºEUROPA-PARQUE PICOS DE OLITE", "lat": 40.5448379516602, "lng": -3.62434387207031, "feed": "mdb-791"}, {"name": "MARQUESA VIUDA DE ALDAMA-NªSRA.DEL PILAR", "lat": 40.5413055419922, "lng": -3.63294339179993, "feed": "mdb-791"}, {"name": "LIBERTAD-JULIÁN BAENA CASTRO", "lat": 40.5395812988281, "lng": -3.63649344444275, "feed": "mdb-791"}, {"name": "MARQUESA VIUDA DE ALDAMA-TRVA.DEL CAÑÓN", "lat": 40.5422172546387, "lng": -3.63090896606445, "feed": "mdb-791"}, {"name": "CTRA.A1-CUESTA BLANCA", "lat": 40.5223350524902, "lng": -3.65168905258179, "feed": "mdb-791"}, {"name": "CTRA.A1-EL ENCINAR DE LOS REYES", "lat": 40.5145568847656, "lng": -3.65547370910645, "feed": "mdb-791"}, {"name": "AV.BURGOS-DOMINICOS", "lat": 40.5019798278809, "lng": -3.66060304641724, "feed": "mdb-791"}, {"name": "PºEUROPA-GTA.ANTONIO GAUDÍ", "lat": 40.5562934875488, "lng": -3.61487126350403, "feed": "mdb-791"}, {"name": "PºEUROPA-GTA.ANTONIO GAUDÍ", "lat": 40.5563850402832, "lng": -3.61443519592285, "feed": "mdb-791"}, {"name": "AV.MATAPIÑONERA-AV.CERRO DEL ÁGUILA", "lat": 40.5457305908203, "lng": -3.61737275123596, "feed": "mdb-791"}, {"name": "AV.MATAPIÑONERA-AV.CAMINO DE LO CORTAO", "lat": 40.5483512878418, "lng": -3.61938095092773, "feed": "mdb-791"}, {"name": "BAMBU-AV.PIO XII", "lat": 40.4739990234375, "lng": -3.67745804786682, "feed": "mdb-791"}, {"name": "BAMBÚ-YUCA", "lat": 40.4768333435059, "lng": -3.67636585235596, "feed": "mdb-791"}, {"name": "PºEUROPA-AV.MONTES DE OCA", "lat": 40.5532073974609, "lng": -3.61732339859009, "feed": "mdb-791"}, {"name": "PºEUROPA-AV.MONTES DE OCA", "lat": 40.553352355957, "lng": -3.61756086349487, "feed": "mdb-791"}, {"name": "AV.MATAPIÑONERA-PLAZA NORTE", "lat": 40.5431594848633, "lng": -3.61633372306824, "feed": "mdb-791"}, {"name": "PZA.LA FUENTE-URB.CIUDALCAMPO", "lat": 40.6268272399902, "lng": -3.58848834037781, "feed": "mdb-791"}, {"name": "PºEUROPA-AV.ESPAÑA", "lat": 40.5417900085449, "lng": -3.62687826156616, "feed": "mdb-791"}, {"name": "AV.MATAPIÑONERA-CºJUNCAL", "lat": 40.540699005127, "lng": -3.61807060241699, "feed": "mdb-791"}, {"name": "CTRA.ANTIGUA DE BURGOS-C.C.ALEGRA", "lat": 40.5660285949707, "lng": -3.60559248924255, "feed": "mdb-791"}, {"name": "CTRA.ANTIGUA DE BURGOS-C.C.ALEGRA", "lat": 40.566089630127, "lng": -3.6059238910675, "feed": "mdb-791"}, {"name": "PºEUROPA-HOSPITAL INFANTA SOFÍA", "lat": 40.5602951049805, "lng": -3.61124610900879, "feed": "mdb-791"}, {"name": "PºEUROPA-LEOPOLDO GIMENO", "lat": 40.5477409362793, "lng": -3.62202072143555, "feed": "mdb-791"}, {"name": "PºEUROPA-HOSPITAL INFANTA SOFÍA", "lat": 40.5593185424805, "lng": -3.61180424690247, "feed": "mdb-791"}, {"name": "INTERCAMBIADOR DE PLAZA CASTILLA", "lat": 40.4675521850586, "lng": -3.68892955780029, "feed": "mdb-791"}, {"name": "CTRA.A1-URB.FRESNO NORTE", "lat": 40.5935401916504, "lng": -3.58267760276794, "feed": "mdb-791"}, {"name": "AV.ESPAÑA-VIVEROS", "lat": 40.5432891845703, "lng": -3.62780141830444, "feed": "mdb-791"}, {"name": "AV.BURGOS-FCO.PI Y MARGALL", "lat": 40.4943008422852, "lng": -3.6674427986145, "feed": "mdb-791"}, {"name": "AV.BURGOS Nº 87-PASO ELEVADO", "lat": 40.4900321960449, "lng": -3.67299365997314, "feed": "mdb-791"}, {"name": "AV.BURGOS-AV.SAN LUIS", "lat": 40.4810905456543, "lng": -3.67592477798462, "feed": "mdb-791"}, {"name": "AV.BURGOS Nº 93", "lat": 40.4933738708496, "lng": -3.67044281959534, "feed": "mdb-791"}, {"name": "AV.BURGOS-CENTRO FINANCIERO", "lat": 40.4987373352051, "lng": -3.66366314888, "feed": "mdb-791"}, {"name": "HIEDRA-EST.CHAMARTÍN", "lat": 40.4720497131348, "lng": -3.67959713935852, "feed": "mdb-791"}, {"name": "AV.BURGOS Nº 85", "lat": 40.4874076843262, "lng": -3.6735692024231, "feed": "mdb-791"}, {"name": "LATERAL PºCASTELLANA-HOSPITAL AL PAZ", "lat": 40.4800987243652, "lng": -3.68495202064514, "feed": "mdb-791"}, {"name": "Intercambiador de Plaza de Castilla", "lat": 40.4669, "lng": -3.6892, "feed": "mdb-791"}, {"name": "YERUPAJA-GREDOS", "lat": 40.6292190551758, "lng": -3.59088611602783, "feed": "mdb-791"}, {"name": "YERUPAJA-ANETO", "lat": 40.6314926147461, "lng": -3.59357857704163, "feed": "mdb-791"}, {"name": "APALACHES-NARANJO DE BULNES", "lat": 40.6312561035156, "lng": -3.59621334075928, "feed": "mdb-791"}, {"name": "NARANJO DE BULNES-ORDIALES", "lat": 40.6308898925781, "lng": -3.59901237487793, "feed": "mdb-791"}, {"name": "NARANJO DE BULNES-YERUPAJA", "lat": 40.630973815918, "lng": -3.59994745254517, "feed": "mdb-791"}, {"name": "NARANJO DE BULNES-LOIRA", "lat": 40.6313095092773, "lng": -3.60319042205811, "feed": "mdb-791"}, {"name": "PºNARANJO DE BULNES-NÍGER", "lat": 40.629997253418, "lng": -3.60607552528381, "feed": "mdb-791"}, {"name": "PºNARANJO DE BULNES-AMAZONAS", "lat": 40.6298637390137, "lng": -3.60879397392273, "feed": "mdb-791"}, {"name": "PºNARANJO DE BULNES-MIÑO", "lat": 40.6279220581055, "lng": -3.61174416542053, "feed": "mdb-791"}, {"name": "PºNARANJO DE BULNES-LENA", "lat": 40.6258430480957, "lng": -3.6129903793335, "feed": "mdb-791"}, {"name": "PºPERÚ-PºNARANJO DE BULNES", "lat": 40.6243896484375, "lng": -3.6138756275177, "feed": "mdb-791"}, {"name": "PºPERÚ-NOGAL", "lat": 40.625129699707, "lng": -3.61654257774353, "feed": "mdb-791"}, {"name": "PºPERÚ-JARA", "lat": 40.6232872009277, "lng": -3.61887860298157, "feed": "mdb-791"}, {"name": "PºPERÚ-PºSERBALES", "lat": 40.6216468811035, "lng": -3.62081408500671, "feed": "mdb-791"}, {"name": "PºPERÚ-OLMO", "lat": 40.6182174682617, "lng": -3.62227201461792, "feed": "mdb-791"}, {"name": "PºPERÚ-PºCERRO DEL TORO", "lat": 40.6195869445801, "lng": -3.61886811256409, "feed": "mdb-791"}, {"name": "GAMO-PºCERRO DEL TORO", "lat": 40.6167068481445, "lng": -3.62028360366821, "feed": "mdb-791"}, {"name": "PºEMBAJADOR Nº102", "lat": 40.6179809570313, "lng": -3.617351770401, "feed": "mdb-791"}, {"name": "PºEMABAJADOR-PZA.HEXÁGONO", "lat": 40.6198539733887, "lng": -3.61424779891968, "feed": "mdb-791"}, {"name": "PZA.HEXÁGONO-DANUBIO", "lat": 40.6203727722168, "lng": -3.61362600326538, "feed": "mdb-791"}, {"name": "PºNARANJO DE BULNES-PZA.HEXÁGONO", "lat": 40.6211700439453, "lng": -3.61392879486084, "feed": "mdb-791"}, {"name": "ARLANZA-PºNARANJO DE BULNES", "lat": 40.6224708557129, "lng": -3.61345601081848, "feed": "mdb-791"}, {"name": "ARLANZA-ELBA", "lat": 40.6242561340332, "lng": -3.60979533195496, "feed": "mdb-791"}, {"name": "ARLANZA-PºNARCEA", "lat": 40.6241874694824, "lng": -3.60569190979004, "feed": "mdb-791"}, {"name": "AV.GUADALIX-ARLANZA", "lat": 40.6241874694824, "lng": -3.60368204116821, "feed": "mdb-791"}, {"name": "TÁMESIS-PºNARCEA", "lat": 40.6235504150391, "lng": -3.6052131652832, "feed": "mdb-791"}, {"name": "PºNARCEA-RÓDANO", "lat": 40.6226654052734, "lng": -3.60904788970947, "feed": "mdb-791"}, {"name": "DANUBIO-NERVIÓN", "lat": 40.6209754943848, "lng": -3.60973000526428, "feed": "mdb-791"}, {"name": "DANUBIO-AV.GUADALIX", "lat": 40.6215591430664, "lng": -3.60520720481873, "feed": "mdb-791"}, {"name": "AV.ENCINAS Nº15", "lat": 40.6192321777344, "lng": -3.60226583480835, "feed": "mdb-791"}, {"name": "AV.ENCINAS-ÁGUILA", "lat": 40.6190719604492, "lng": -3.60537385940552, "feed": "mdb-791"}, {"name": "AV.ENCINAS-CIERVO", "lat": 40.6189117431641, "lng": -3.60848164558411, "feed": "mdb-791"}, {"name": "PºREBECO-AV.ENCINAS", "lat": 40.6181907653809, "lng": -3.6116316318512, "feed": "mdb-791"}, {"name": "PºREBECO-OSO", "lat": 40.6166687011719, "lng": -3.61542439460754, "feed": "mdb-791"}, {"name": "PºEMBAJADOR-PºREBECO", "lat": 40.6128005981445, "lng": -3.61626386642456, "feed": "mdb-791"}, {"name": "PºEMBAJADOR-CIERVO", "lat": 40.6145248413086, "lng": -3.61188197135925, "feed": "mdb-791"}, {"name": "PºEMBAJADOR-ALCE", "lat": 40.6156616210938, "lng": -3.60831022262573, "feed": "mdb-791"}, {"name": "PºEMBAJADOR-ÁGUILA", "lat": 40.6156921386719, "lng": -3.60611176490784, "feed": "mdb-791"}, {"name": "PºEMBAJADOR-UROGALLO", "lat": 40.6160202026367, "lng": -3.60349011421204, "feed": "mdb-791"}, {"name": "PºEMBAJADOR-GARZA", "lat": 40.6162872314453, "lng": -3.6007616519928, "feed": "mdb-791"}, {"name": "PºEMBAJADOR-AV.ENCINAS", "lat": 40.6183319091797, "lng": -3.59849834442139, "feed": "mdb-791"}, {"name": "AV.ENCINAS-CÓNDOR", "lat": 40.6207542419434, "lng": -3.59366083145142, "feed": "mdb-791"}, {"name": "AV.ENCINAS-URB.PUERTAS VERDES", "lat": 40.6224174499512, "lng": -3.59069609642029, "feed": "mdb-791"}, {"name": "AV.JUAN CARLOS I-OLIVAR", "lat": 40.5017433166504, "lng": -4.23776292800903, "feed": "mdb-791"}, {"name": "PZA.ESPAÑA-AYUNTAMIENTO", "lat": 40.5114631652832, "lng": -4.29539966583252, "feed": "mdb-791"}, {"name": "PºLOS ÁLAMOS-CONCEPCIÓN", "lat": 40.501293182373, "lng": -4.23668050765991, "feed": "mdb-791"}, {"name": "AV.CONSTITUCIÓN-FRANCISCO VALIÑO", "lat": 40.5827026367188, "lng": -4.12954473495483, "feed": "mdb-791"}, {"name": "EST. DE AUTOBUSES DE S.L.DE EL ESCORIAL", "lat": 40.592399597168, "lng": -4.14380598068237, "feed": "mdb-791"}, {"name": "AV.CONSTITUCIÓN-QUITERIO LÓPEZ", "lat": 40.5825958251953, "lng": -4.12963724136353, "feed": "mdb-791"}, {"name": "CTRA.M600-URB.MONTE ESCORIAL", "lat": 40.6031265258789, "lng": -4.12220573425293, "feed": "mdb-791"}, {"name": "JUAN DE TOLEDO-BIBLIOTECA", "lat": 40.5970344543457, "lng": -4.13604974746704, "feed": "mdb-791"}, {"name": "JUAN DE TOLEDO-VELÁZQUEZ", "lat": 40.5943374633789, "lng": -4.14187717437744, "feed": "mdb-791"}, {"name": "JUAN DE TOLEDO-BIBLIOTECA", "lat": 40.5971145629883, "lng": -4.13553094863892, "feed": "mdb-791"}, {"name": "CTRA.M600-URB.MONTE ESCORIAL", "lat": 40.6026153564453, "lng": -4.12291812896729, "feed": "mdb-791"}, {"name": "POZAS-CENTRO COMERCIAL", "lat": 40.6023597717285, "lng": -4.12770080566406, "feed": "mdb-791"}, {"name": "HOSPITAL EL ESCORIAL", "lat": 40.6072311401367, "lng": -4.11969757080078, "feed": "mdb-791"}, {"name": "CTRA.M512-G.ADOLFO BÉCQUER", "lat": 40.5047988891602, "lng": -4.23581266403198, "feed": "mdb-791"}, {"name": "CTRA.VALDEMAQUEDA-AV.CONSTITUCIÓN", "lat": 40.4989433288574, "lng": -4.23941087722778, "feed": "mdb-791"}, {"name": "CTRA.M537-COLONIA DEL RÍO", "lat": 40.5080757141113, "lng": -4.27761888504028, "feed": "mdb-791"}, {"name": "TRVA.DOS DE MAYO-COLONIA SANTA ANA", "lat": 40.5097579956055, "lng": -4.28913497924805, "feed": "mdb-791"}, {"name": "TRVA.DOS DE MAYO-ERMITA", "lat": 40.5119972229004, "lng": -4.30079221725464, "feed": "mdb-791"}, {"name": "TRVA.DOS DE MAYO-COLONIA SANTA ANA", "lat": 40.5098419189453, "lng": -4.28976202011108, "feed": "mdb-791"}, {"name": "CTRA.M537-COLONIA DEL RÍO", "lat": 40.5073165893555, "lng": -4.27538537979126, "feed": "mdb-791"}, {"name": "AV.CONSTITUCIÓN-MADRID", "lat": 40.5823173522949, "lng": -4.12287425994873, "feed": "mdb-791"}, {"name": "JUAN DE TOLEDO-ESTACIÓN DE AUTOBUSES", "lat": 40.5917778015137, "lng": -4.1438307762146, "feed": "mdb-791"}, {"name": "CTRA.M600-URB.JARDÍN DE REYES", "lat": 40.5996398925781, "lng": -4.12943983078003, "feed": "mdb-791"}, {"name": "CTRA.M600-URB.JARDÍN DE REYES", "lat": 40.5994262695313, "lng": -4.13042879104614, "feed": "mdb-791"}, {"name": "CTRA.M512-FÉLIX BONET", "lat": 40.5179862976074, "lng": -4.24617099761963, "feed": "mdb-791"}, {"name": "CTRA.M512-FÉLIX BONET", "lat": 40.5181121826172, "lng": -4.24592590332031, "feed": "mdb-791"}, {"name": "AV.REYES CATÓLICOS-PADRE WIGFRIDO", "lat": 40.5895576477051, "lng": -4.1396689414978, "feed": "mdb-791"}, {"name": "AV.REYES CATÓLICOS-PADRE WIGFRIDO", "lat": 40.5893020629883, "lng": -4.13923931121826, "feed": "mdb-791"}, {"name": "CTRA.M512-URB.LA SALETA", "lat": 40.5129051208496, "lng": -4.23931360244751, "feed": "mdb-791"}, {"name": "CTRA.M512-URB.LA SALETA", "lat": 40.5131416320801, "lng": -4.23927068710327, "feed": "mdb-791"}, {"name": "CTRA.M512-URB.CERRILLO DEL CARMEN", "lat": 40.5076904296875, "lng": -4.23501586914063, "feed": "mdb-791"}, {"name": "CTRA.M512-URB.CERRILLO DEL CARMEN", "lat": 40.507511138916, "lng": -4.23480033874512, "feed": "mdb-791"}, {"name": "CTRA.M512-ALMOJÓN", "lat": 40.5098876953125, "lng": -4.23768854141235, "feed": "mdb-791"}, {"name": "CTRA.M512-ALMOJÓN", "lat": 40.5098419189453, "lng": -4.23693227767944, "feed": "mdb-791"}, {"name": "CTRA.M512-URB.LA SUIZA ESPAÑOLA", "lat": 40.5100975036621, "lng": -4.2409496307373, "feed": "mdb-791"}, {"name": "CTRA.M505-PUERTO DE LA CRUZ VERDE", "lat": 40.5595207214355, "lng": -4.19631624221802, "feed": "mdb-791"}, {"name": "CTRA.M512-PUERTO DE LA CRUZ VERDE", "lat": 40.5587425231934, "lng": -4.19743633270264, "feed": "mdb-791"}, {"name": "TRVA.DOS DE MAYO-PILAS", "lat": 40.5122032165527, "lng": -4.30319213867188, "feed": "mdb-791"}, {"name": "TRVA.DOS DE MAYO-AV.DEL PINAR", "lat": 40.5121002197266, "lng": -4.3036150932312, "feed": "mdb-791"}, {"name": "FCO.QUEVEDO-EST.ROBLEDO DE CHAVELA", "lat": 40.5202102661133, "lng": -4.24630689620972, "feed": "mdb-791"}, {"name": "MIGUEL CERVANTES-LUIS GÓNGORA", "lat": 40.520923614502, "lng": -4.25360345840454, "feed": "mdb-791"}, {"name": "NAVAS-ARROYO", "lat": 40.5207366943359, "lng": -4.25563049316406, "feed": "mdb-791"}, {"name": "NAVAS-PINOS", "lat": 40.5186157226563, "lng": -4.25962829589844, "feed": "mdb-791"}, {"name": "AMISTAD-AV.CENTRAL", "lat": 40.5158920288086, "lng": -4.25990772247314, "feed": "mdb-791"}, {"name": "AV.CENTRAL-FUENTE ÁGUILA", "lat": 40.5118255615234, "lng": -4.25169897079468, "feed": "mdb-791"}, {"name": "AV.CENTRAL-ALMENARA", "lat": 40.5092887878418, "lng": -4.24570322036743, "feed": "mdb-791"}, {"name": "AV.VIRGEN DE NAVAHONDA-CANOPUS", "lat": 40.4956474304199, "lng": -4.23414611816406, "feed": "mdb-791"}, {"name": "INTERCAMBIADOR MONCLOA", "lat": 40.4343032836914, "lng": -3.71930313110352, "feed": "mdb-791"}, {"name": "CTRA.M505-BURGOCENTRO", "lat": 40.4909934997559, "lng": -3.87664604187012, "feed": "mdb-791"}, {"name": "CTRA.M505-BURGOCENTRO", "lat": 40.4915809631348, "lng": -3.87868332862854, "feed": "mdb-791"}, {"name": "CTRA.M509-AV.LOS PINOS", "lat": 40.4855422973633, "lng": -3.97330236434937, "feed": "mdb-791"}, {"name": "CTRA.M509-LOS PINOS", "lat": 40.4854278564453, "lng": -3.9729585647583, "feed": "mdb-791"}, {"name": "AV.MADRID-RECAUDACIÓN", "lat": 40.4890594482422, "lng": -3.96325278282166, "feed": "mdb-791"}, {"name": "REAL-IGLESIA", "lat": 40.488151550293, "lng": -4.17017507553101, "feed": "mdb-791"}, {"name": "SOLANA-CTRA.M510", "lat": 40.4684562683105, "lng": -4.12398338317871, "feed": "mdb-791"},