[{"name": "Aeropuerto César Manrique-Lanzarote", "lat": 28.950325, "lng": -13.60867, "feed": "mdb-2727"}, {"name": "Aeropuerto Málaga-Costa del Sol", "lat": 36.67341, "lng": -4.488425, "feed": "mdb-2727"}, {"name": "Aeropuerto Alicante-Elche", "lat": 38.286753, "lng": -0.557181, "feed": "mdb-2727"}, {"name": "Aeropuerto Josep Tarradellas Barcelona-El Prat", "lat": 41.294866, "lng": 2.083582, "feed": "mdb-2727"}, {"name": "Aeropuerto Bilbao", "lat": 43.305006, "lng": -2.906184, "feed": "mdb-2727"}, {"name": "Aeropuerto Badajoz", "lat": 38.894047, "lng": -6.819103, "feed": "mdb-2727"}, {"name": "Aeropuerto San Sebastián", "lat": 43.356467, "lng": -1.793062, "feed": "mdb-2727"}, {"name": "Aeropuerto Fuerteventura", "lat": 28.450977, "lng": -13.869445, "feed": "mdb-2727"}, {"name": "Aeropuerto Girona-Costa Brava", "lat": 41.898077, "lng": 2.766001, "feed": "mdb-2727"}, {"name": "Aeropuerto Federico G. Lorca Granada-Jaén", "lat": 37.186373, "lng": -3.777494, "feed": "mdb-2727"}, {"name": "Aeropuerto Ibiza", "lat": 38.876209, "lng": 1.367873, "feed": "mdb-2727"}, {"name": "Aeropuerto A Coruña", "lat": 43.3026, "lng": -8.37838, "feed": "mdb-2727"}, {"name": "Aeropuerto Almería", "lat": 36.847779, "lng": -2.371582, "feed": "mdb-2727"}, {"name": "Aeropuerto Gran Canaria", "lat": 27.933451, "lng": -15.389786, "feed": "mdb-2727"}, {"name": "Aeropuerto Adolfo Suárez Madrid-Barajas", "lat": 40.478162, "lng": -3.570728, "feed": "mdb-2727"}, {"name": "Aeropuerto Menorca", "lat": 39.864574, "lng": 4.225531, "feed": "mdb-2727"}, {"name": "Aeropuerto Melilla", "lat": 35.277183, "lng": -2.957511, "feed": "mdb-2727"}, {"name": "Aeropuerto Córdoba", "lat": 37.844546, "lng": -4.843828, "feed": "mdb-2727"}, {"name": "Aeropuerto Asturias", "lat": 43.559333, "lng": -6.032771, "feed": "mdb-2727"}, {"name": "Aeropuerto Palma de Mallorca", "lat": 39.547934, "lng": 2.731336, "feed": "mdb-2727"}, {"name": "Aeropuerto Pamplona", "lat": 42.767407, "lng": -1.639795, "feed": "mdb-2727"}, {"name": "Aeropuerto Reus", "lat": 41.146313, "lng": 1.153951, "feed": "mdb-2727"}, {"name": "Aeropuerto Región de Murcia", "lat": 37.804599, "lng": -1.1314, "feed": "mdb-2727"}, {"name": "Aeropuerto Santiago-Rosalía de Castro", "lat": 42.897676, "lng": -8.419991, "feed": "mdb-2727"}, {"name": "Aeropuerto Seve Ballesteros-Santander", "lat": 43.423329, "lng": -3.82428, "feed": "mdb-2727"}, {"name": "Aeropuerto Salamanca", "lat": 40.940279, "lng": -5.502316, "feed": "mdb-2727"}, {"name": "Aeropuerto La Palma", "lat": 28.617999, "lng": -17.753971, "feed": "mdb-2727"}, {"name": "Aeropuerto Sevilla", "lat": 37.423301, "lng": -5.899637, "feed": "mdb-2727"}, {"name": "Aeropuerto Tenerife Norte-Ciudad de La Laguna", "lat": 28.487487, "lng": -16.346004, "feed": "mdb-2727"}, {"name": "Aeropuerto Tenerife Sur", "lat": 28.04761, "lng": -16.577715, "feed": "mdb-2727"}, {"name": "Aeropuerto El Hierro", "lat": 27.814046, "lng": -17.885227, "feed": "mdb-2727"}, {"name": "Aeropuerto Vigo", "lat": 42.225387, "lng": -8.63262, "feed": "mdb-2727"}, {"name": "Aeropuerto Vitoria", "lat": 42.883362, "lng": -2.731025, "feed": "mdb-2727"}, {"name": "Aeropuerto Valencia", "lat": 39.491473, "lng": -0.473936, "feed": "mdb-2727"}, {"name": "Aeropuerto Valladolid", "lat": 41.706017, "lng": -4.844831, "feed": "mdb-2727"}, {"name": "Aeropuerto Jerez", "lat": 36.750361, "lng": -6.064206, "feed": "mdb-2727"}, {"name": "Aeropuerto Zaragoza", "lat": 41.66331, "lng": -1.007824, "feed": "mdb-2727"}, {"name": "Alicante", "lat": 38.33750447, "lng": -0.49149351, "feed": "mdb-2825"}, {"name": "Benidorm Estación De Autobuses", "lat": 38.55028323, "lng": -0.12530644, "feed": "mdb-2825"}, {"name": "Gandia", "lat": 38.97050137, "lng": -0.18019122, "feed": "mdb-2825"}, {"name": "Valencia", "lat": 39.4805335, "lng": -0.38740942, "feed": "mdb-2825"}, {"name": "Alicante Estación Tren", "lat": 38.34502168, "lng": -0.49507163, "feed": "mdb-2825"}, {"name": "Muro De Alcoy", "lat": 38.78181548, "lng": -0.44442846, "feed": "mdb-2825"}, {"name": "Cocentaina", "lat": 38.74258907, "lng": -0.43831501, "feed": "mdb-2825"}, {"name": "Alcoi", "lat": 38.70947497, "lng": -0.4692702, "feed": "mdb-2825"}, {"name": "Alginet", "lat": 39.26475587, "lng": -0.46821194, "feed": "mdb-2825"}, {"name": "Massalaves", "lat": 39.14326991, "lng": -0.5210461, "feed": "mdb-2825"}, {"name": "Alberique", "lat": 39.11591175, "lng": -0.52651326, "feed": "mdb-2825"}, {"name": "Rotgla Y Corbera", "lat": 39.00354384, "lng": -0.56651488, "feed": "mdb-2825"}, {"name": "Llanera De Ranes", "lat": 38.99148595, "lng": -0.5725911, "feed": "mdb-2825"}, {"name": "Torrella", "lat": 38.98935111, "lng": -0.57240374, "feed": "mdb-2825"}, {"name": "Cerdá", "lat": 38.98685473, "lng": -0.57374275, "feed": "mdb-2825"}, {"name": "Olleria", "lat": 38.914324, "lng": -0.55368579, "feed": "mdb-2825"}, {"name": "Ayelo De Malferit", "lat": 38.87805233, "lng": -0.58293356, "feed": "mdb-2825"}, {"name": "Onteniente", "lat": 38.82139025, "lng": -0.59703749, "feed": "mdb-2825"}, {"name": "Massalaves", "lat": 39.14327507, "lng": -0.52095213, "feed": "mdb-2825"}, {"name": "Alginet", "lat": 39.27035023, "lng": -0.46517011, "feed": "mdb-2825"}, {"name": "Xativa", "lat": 38.99264962, "lng": -0.5213893, "feed": "mdb-2825"}, {"name": "Albaida", "lat": 38.83730186, "lng": -0.51872677, "feed": "mdb-2825"}, {"name": "Ibi", "lat": 38.62318123, "lng": -0.57367514, "feed": "mdb-2825"}, {"name": "Muro De Alcoy", "lat": 38.78184585, "lng": -0.44386697, "feed": "mdb-2825"}, {"name": "Elda", "lat": 38.4783862, "lng": -0.78432307, "feed": "mdb-2825"}, {"name": "Elche", "lat": 38.27250871, "lng": -0.6917583, "feed": "mdb-2825"}, {"name": "Soto Viñuelas (urb Mad)", "lat": 40.6117659, "lng": -3.68126128, "feed": "mdb-2825"}, {"name": "S.Viñuelas - Paseo Andes 27", "lat": 40.61104512, "lng": -3.68445495, "feed": "mdb-2825"}, {"name": "Soto de Viñuelas - Cabecera", "lat": 40.60805657, "lng": -3.68709628, "feed": "mdb-2825"}, {"name": "P.Carrizal-Orduña", "lat": 40.61038106, "lng": -3.68869197, "feed": "mdb-2825"}, {"name": "Tres Cantos - Soto de Viñuelas", "lat": 40.61214004, "lng": -3.68976226, "feed": "mdb-2825"}, {"name": "Tres Cantos - Calle Batanes 2", "lat": 40.61199279, "lng": -3.69477277, "feed": "mdb-2825"}, {"name": "Av.Industria-Batanes", "lat": 40.61150119, "lng": -3.69701705, "feed": "mdb-2825"}, {"name": "Tres Cantos - Avd Industria 34", "lat": 40.61301036, "lng": -3.69932263, "feed": "mdb-2825"}, {"name": "Tres Cantos - Avd Industria 58", "lat": 40.61444219, "lng": -3.70237592, "feed": "mdb-2825"}, {"name": "Tres Cantos - Avd Artesanos 44", "lat": 40.61342404, "lng": -3.70537994, "feed": "mdb-2825"}, {"name": "Tres Cantos - Avd Artesanos 52", "lat": 40.61370823, "lng": -3.70745176, "feed": "mdb-2825"}, {"name": "Tres Cantos - Avd Artesanos 64", "lat": 40.61460662, "lng": -3.70935226, "feed": "mdb-2825"}, {"name": "Tres Cantos - Guardia Civil", "lat": 40.61328997, "lng": -3.71104076, "feed": "mdb-2825"}, {"name": "Tres Cantos - C Comerc El Zoco", "lat": 40.61075578, "lng": -3.71296418, "feed": "mdb-2825"}, {"name": "Tres Cantos - Avd Colmenar 46", "lat": 40.60907128, "lng": -3.71438856, "feed": "mdb-2825"}, {"name": "Tres Cantos - Avd Colmenar sn", "lat": 40.60703384, "lng": -3.71606904, "feed": "mdb-2825"}, {"name": "Tres Cantos - Avd Encuartes 21", "lat": 40.60417306, "lng": -3.71545941, "feed": "mdb-2825"}, {"name": "Tres Cantos - Avd Encuartes 17", "lat": 40.60175002, "lng": -3.71389696, "feed": "mdb-2825"}, {"name": "Tres Cantos - Estacion Ffcc", "lat": 40.59869616, "lng": -3.71532993, "feed": "mdb-2825"}, {"name": "Av de Labradores-Av del Parque", "lat": 40.59933272, "lng": -3.7070398, "feed": "mdb-2825"}, {"name": "Calle Labradores Junto Colegio", "lat": 40.60102523, "lng": -3.70134918, "feed": "mdb-2825"}, {"name": "Tres Cantos - C/ La Majada 4", "lat": 40.60156381, "lng": -3.69720612, "feed": "mdb-2825"}, {"name": "Tres Cantos - Avd del Parque 2", "lat": 40.60601054, "lng": -3.69777221, "feed": "mdb-2825"}, {"name": "Tres Cantos - Valdecarrizo 15", "lat": 40.60684763, "lng": -3.69495612, "feed": "mdb-2825"}, {"name": "Tres Cantos - Valdecarrizo 21", "lat": 40.61200482, "lng": -3.69421758, "feed": "mdb-2825"}, {"name": "Tres Cantos - Soto de Viñuelas", "lat": 40.61154531, "lng": -3.69123361, "feed": "mdb-2825"}, {"name": "S. Viñuelas - Frente C/ Escudo", "lat": 40.61214749, "lng": -3.68843815, "feed": "mdb-2825"}, {"name": "S. Viñuelas - Fte Navacerrada", "lat": 40.61227354, "lng": -3.68393585, "feed": "mdb-2825"}, {"name": "Av.Artesanos-Temple", "lat": 40.61194065, "lng": -3.70243494, "feed": "mdb-2825"}, {"name": "Tres Cantos - Avda Encuartes 9", "lat": 40.60037263, "lng": -3.71232247, "feed": "mdb-2825"}, {"name": "Tres Cantos - Avd Encuartes 15", "lat": 40.60137646, "lng": -3.71312461, "feed": "mdb-2825"}, {"name": "Tres Cantos - Fte Ayuntamiento", "lat": 40.60683789, "lng": -3.7156886, "feed": "mdb-2825"}, {"name": "Tres Cantos - Supermerc Aljoma", "lat": 40.60909248, "lng": -3.71386888, "feed": "mdb-2825"}, {"name": "Tres Cantos - C Comerc El Zoco", "lat": 40.61084917, "lng": -3.71242159, "feed": "mdb-2825"}, {"name": "Tres Cantos - Guardia Civil", "lat": 40.61321434, "lng": -3.71018878, "feed": "mdb-2825"}, {"name": "Tres Cantos - Sector Foresta", "lat": 40.61350425, "lng": -3.70839484, "feed": "mdb-2825"}, {"name": "Tres Cantos - Avd Artesanos 44", "lat": 40.61337763, "lng": -3.70560397, "feed": "mdb-2825"}, {"name": "Tres Cantos - Avd Industria 34", "lat": 40.61285624, "lng": -3.69945155, "feed": "mdb-2825"}, {"name": "Av.Industria-Batanes", "lat": 40.61127602, "lng": -3.69718722, "feed": "mdb-2825"}, {"name": "Tres Cantos - Avd Industria 25", "lat": 40.60600882, "lng": -3.69805582, "feed": "mdb-2825"}, {"name": "Tres Cantos - Av Artesanos 147", "lat": 40.59887721, "lng": -3.69909287, "feed": "mdb-2825"}, {"name": "Tres Cantos - Avda Viñuelas 47", "lat": 40.59685754, "lng": -3.69935529, "feed": "mdb-2825"}, {"name": "Tres Cantos - Sc Embarcaciones", "lat": 40.59627599, "lng": -3.70313108, "feed": "mdb-2825"}, {"name": "Tres Cantos - Avda Viñuelas 17", "lat": 40.59600326, "lng": -3.70497199, "feed": "mdb-2825"}, {"name": "Tres Cantos - Avda Viñuelas 1", "lat": 40.5956188, "lng": -3.70748556, "feed": "mdb-2825"}, {"name": "Tres Cantos - Avd Encuartes 46", "lat": 40.59858844, "lng": -3.71095597, "feed": "mdb-2825"}, {"name": "Av.Artesanos-Temple", "lat": 40.61165933, "lng": -3.70199548, "feed": "mdb-2825"}, {"name": "Tres Cantos - Avda Viñuelas 2", "lat": 40.59524925, "lng": -3.70746952, "feed": "mdb-2825"}, {"name": "Tres Cantos - Avda Viñuelas 38", "lat": 40.5960829, "lng": -3.70223096, "feed": "mdb-2825"}, {"name": "Tres Cantos - Avda Viñuelas 52", "lat": 40.59647939, "lng": -3.69924528, "feed": "mdb-2825"}, {"name": "Tres Cantos - Av Artesanos 149", "lat": 40.59941408, "lng": -3.69896109, "feed": "mdb-2825"}, {"name": "Uam - Cercanias", "lat": 40.54544775, "lng": -3.69991622, "feed": "mdb-2825"}, {"name": "Uam - Psicologia", "lat": 40.54336391, "lng": -3.69368702, "feed": "mdb-2825"}, {"name": "Uam - Derecho", "lat": 40.54218648, "lng": -3.69154358, "feed": "mdb-2825"}, {"name": "Uam - Politecnica", "lat": 40.54652835, "lng": -3.6914055, "feed": "mdb-2825"}, {"name": "Uam - Nanociencia", "lat": 40.54903447, "lng": -3.68816714, "feed": "mdb-2825"}, {"name": "Uam - Severo Ochoa", "lat": 40.54957706, "lng": -3.69012036, "feed": "mdb-2825"}, {"name": "Uam - Residencias", "lat": 40.54836067, "lng": -3.69794524, "feed": "mdb-2825"}, {"name": "Pza.Puerta De España-Av.España", "lat": 40.62036714, "lng": -3.72758492, "feed": "mdb-2825"}, {"name": "Av.España-Av.Madrid", "lat": 40.61915877, "lng": -3.72215042, "feed": "mdb-2825"}, {"name": "Avenida de España.Comvalencia3", "lat": 40.61831423, "lng": -3.7173009, "feed": "mdb-2825"}, {"name": "Avenida de Eslovaquia 131", "lat": 40.62048632, "lng": -3.71420292, "feed": "mdb-2825"}, {"name": "Calle Dinamarca-Juan Pablo Ii", "lat": 40.62228884, "lng": -3.71120692, "feed": "mdb-2825"}, {"name": "Gran Via Tres Cantos-Av.Teresa", "lat": 40.62672583, "lng": -3.71629135, "feed": "mdb-2825"}, {"name": "Av.Madrid-Guadiana", "lat": 40.62333621, "lng": -3.7224856, "feed": "mdb-2825"}, {"name": "Av.Madrid-Av.España", "lat": 40.6198108, "lng": -3.7229325, "feed": "mdb-2825"}, {"name": "Avenida Madrid/Asturias", "lat": 40.61645384, "lng": -3.72271077, "feed": "mdb-2825"}, {"name": "Avenida Madrid/Av.Castilla y L", "lat": 40.61465934, "lng": -3.72144052, "feed": "mdb-2825"}, {"name": "Av.Castilla Y León-Galicia", "lat": 40.61488852, "lng": -3.71921458, "feed": "mdb-2825"}, {"name": "Torrejon - Av Montes-Fuego", "lat": 40.61354665, "lng": -3.71758108, "feed": "mdb-2825"}, {"name": "Maliciosa-Colegio", "lat": 40.61222427, "lng": -3.715947, "feed": "mdb-2825"}, {"name": "Maliciosa-Colegio", "lat": 40.61236006, "lng": -3.71583012, "feed": "mdb-2825"}, {"name": "Av.Actores-Av.Montes", "lat": 40.61576285, "lng": -3.71716167, "feed": "mdb-2825"}, {"name": "Avenida Madrid/Av.C.Valenciana", "lat": 40.61608256, "lng": -3.72251825, "feed": "mdb-2825"}, {"name": "Gran Via Tres Cantos-Av.21 Mar", "lat": 40.62650982, "lng": -3.71627702, "feed": "mdb-2825"}, {"name": "Avenida España/Avenida Madrid", "lat": 40.61835491, "lng": -3.71644318, "feed": "mdb-2825"}, {"name": "Plaza Castilla", "lat": 40.46655032, "lng": -3.69036673, "feed": "mdb-2825"}, {"name": "Lateral P.Castellana-Hosp.Paz", "lat": 40.4786552, "lng": -3.68535048, "feed": "mdb-2825"}, {"name": "Madrid - Fte Hos Ramon y Cajal", "lat": 40.4879354, "lng": -3.69707434, "feed": "mdb-2825"}, {"name": "Ctra M-607 - Col Sta Joaquina", "lat": 40.49267433, "lng": -3.69857377, "feed": "mdb-2825"}, {"name": "Cta M607 - Academia Artilleria", "lat": 40.51303782, "lng": -3.68454376, "feed": "mdb-2825"}, {"name": "Cta M607 - Residencia Ancianos", "lat": 40.52456573, "lng": -3.68810813, "feed": "mdb-2825"}, {"name": "Ctra M-607 - Col San Fernando", "lat": 40.52825157, "lng": -3.69100271, "feed": "mdb-2825"}, {"name": "Ctra.M607-Hospital Univ.Rodríg", "lat": 40.53171682, "lng": -3.69297483, "feed": "mdb-2825"}, {"name": "Ctra M-607 - Hosp Cantoblanco", "lat": 40.53828979, "lng": -3.69503805, "feed": "mdb-2825"}, {"name": "Universidad Autonoma", "lat": 40.54065668, "lng": -3.69694027, "feed": "mdb-2825"}, {"name": "Ctra M-607 con Ctra Alcobendas", "lat": 40.54833833, "lng": -3.70338547, "feed": "mdb-2825"}, {"name": "Cuartel Militar El Goloso", "lat": 40.55487119, "lng": -3.70908755, "feed": "mdb-2825"}, {"name": "Ctra M-607 - Las Jarillas", "lat": 40.57216535, "lng": -3.70950638, "feed": "mdb-2825"}, {"name": "Ctra M-607 Km 21.000", "lat": 40.57856758, "lng": -3.70556902, "feed": "mdb-2825"}, {"name": "Tres Cantos - Avd del Parque 2", "lat": 40.58994881, "lng": -3.70503846, "feed": "mdb-2825"}, {"name": "Tagarral-Escuela Infantil", "lat": 40.59360027, "lng": -3.70063757, "feed": "mdb-2825"}, {"name": "Tres Cantos - C/ Tagarral 48", "lat": 40.59593794, "lng": -3.70092978, "feed": "mdb-2825"}, {"name": "Tcantos Avd Viñuelas (urb Mad)", "lat": 40.5961591, "lng": -3.70290075, "feed": "mdb-2825"}, {"name": "Tres Cantos - Avd Artesanos 66", "lat": 40.61665953, "lng": -3.71386659, "feed": "mdb-2825"}, {"name": "Tres Cantos - Ronda los Montes", "lat": 40.61559211, "lng": -3.71611316, "feed": "mdb-2825"}, {"name": "Av.Montes-Pza.España", "lat": 40.62167177, "lng": -3.71046781, "feed": "mdb-2825"}, {"name": "Tres Cantos - Montes", "lat": 40.62043933, "lng": -3.7117753, "feed": "mdb-2825"}, {"name": "Tres Cantos - Avd Industria 53", "lat": 40.61685319, "lng": -3.70876154, "feed": "mdb-2825"}, {"name": "Tres Cantos - Calle Temple 4", "lat": 40.6137661, "lng": -3.69946071, "feed": "mdb-2825"}, {"name": "Ronda Valdecarrizo-Batanes", "lat": 40.61237266, "lng": -3.69454015, "feed": "mdb-2825"}, {"name": "Tres Cantos - C/ del Vado 66", "lat": 40.60038123, "lng": -3.70208715, "feed": "mdb-2825"}, {"name": "Tres Cantos - C/ del Vado s/n", "lat": 40.59837416, "lng": -3.70177031, "feed": "mdb-2825"}, {"name": "Tagarral-Escuela Infantil", "lat": 40.59287605, "lng": -3.70082664, "feed": "mdb-2825"}, {"name": "Ctra M-607 - Fte Cementerio", "lat": 40.57743312, "lng": -3.70691547, "feed": "mdb-2825"}, {"name": "Cta M-607 - Estacion El Goloso", "lat": 40.55835477, "lng": -3.71241987, "feed": "mdb-2825"}, {"name": "Cuartel Militar El Goloso", "lat": 40.55537769, "lng": -3.71017961, "feed": "mdb-2825"}, {"name": "Ctra M-607 Km 17.000", "lat": 40.54789944, "lng": -3.70596722, "feed": "mdb-2825"}, {"name": "Ctra.M607-Univ.Autonoma", "lat": 40.53966031, "lng": -3.69938623, "feed": "mdb-2825"}, {"name": "Cta M607 - Fte Hos Cantoblanco", "lat": 40.53467557, "lng": -3.69683084, "feed": "mdb-2825"}, {"name": "Ctra.M607-Ciudad Escolar", "lat": 40.52748209, "lng": -3.69159744, "feed": "mdb-2825"}, {"name": "Ctra M-607 - Pasado Gasolinera", "lat": 40.49912985, "lng": -3.69926018, "feed": "mdb-2825"}, {"name": "Madrid - Fte Hos Ramon y Cajal", "lat": 40.48715331, "lng": -3.6972405, "feed": "mdb-2825"}, {"name": "Castellana-Cuatro Torres", "lat": 40.47663724, "lng": -3.68687512, "feed": "mdb-2825"}, {"name": "Calle Valdecarrizo-Yunque 2", "lat": 40.61539731, "lng": -3.69938336, "feed": "mdb-2825"}, {"name": "Paseo Andes-Alameda Baja", "lat": 40.61165532, "lng": -3.6818606, "feed": "mdb-2825"}, {"name": "Ronda Valdecarrizo-Batanes", "lat": 40.61255314, "lng": -3.69448343, "feed": "mdb-2825"}, {"name": "Calle Valdecarrizo-Yunque", "lat": 40.6155056, "lng": -3.69934899, "feed": "mdb-2825"}, {"name": "Ginzo De Limia-R.Academias", "lat": 40.48070925, "lng": -3.70484995, "feed": "mdb-2825"}, {"name": "Plaza Castilla", "lat": 40.46769394, "lng": -3.68913945, "feed": "mdb-2825"}, {"name": "Autonoma - Parking Rectorado", "lat": 40.54363033, "lng": -3.69536521, "feed": "mdb-2825"}, {"name": "Madrid - C/ Marie Curie 4", "lat": 40.54597316, "lng": -3.69223629, "feed": "mdb-2825"}, {"name": "Madrid - C/ Newton 13", "lat": 40.54728236, "lng": -3.69027735, "feed": "mdb-2825"}, {"name": "Madrid - C/ Newton 13", "lat": 40.54941033, "lng": -3.69151551, "feed": "mdb-2825"}, {"name": "Univ. De Comillas (urb Mad)", "lat": 40.55122431, "lng": -3.681746, "feed": "mdb-2825"}, {"name": "Madrid - C/ Newton 13", "lat": 40.54929918, "lng": -3.69195153, "feed": "mdb-2825"}, {"name": "Madrid - C/ Newton 13", "lat": 40.54715345, "lng": -3.69073686, "feed": "mdb-2825"}, {"name": "Autonoma - Frente Parking", "lat": 40.54041375, "lng": -3.69691392, "feed": "mdb-2825"}, {"name": "Tres Cantos - Bolillero 33", "lat": 40.59386154, "lng": -3.70315343, "feed": "mdb-2825"}, {"name": "Av.Parque-Ciudad Mexico", "lat": 40.59655158, "lng": -3.706739, "feed": "mdb-2825"}, {"name": "Tres Cantos - Pza Fuencaliente", "lat": 40.59967191, "lng": -3.70758697, "feed": "mdb-2825"}, {"name": "Tres Cantos - C/ de la Menta", "lat": 40.60222615, "lng": -3.70826421, "feed": "mdb-2825"}, {"name": "Tres Cantos - C/ de la Canela", "lat": 40.60523876, "lng": -3.70913511, "feed": "mdb-2825"}, {"name": "Tres Cantos - Av del Parque 16", "lat": 40.60698571, "lng": -3.71219126, "feed": "mdb-2825"}, {"name": "Tres Cantos - Ronda los Montes", "lat": 40.61540533, "lng": -3.7156737, "feed": "mdb-2825"}, {"name": "Tres Cantos - Montes", "lat": 40.6200079, "lng": -3.71149913, "feed": "mdb-2825"}, {"name": "Tres Cantos Plaza de España", "lat": 40.62562059, "lng": -3.71051135, "feed": "mdb-2825"}, {"name": "Tres Cantos - C/ Bolillero 41", "lat": 40.59533519, "lng": -3.7037006, "feed": "mdb-2825"}, {"name": "Ciudad Escolar", "lat": 40.52363296, "lng": -3.68370266, "feed": "mdb-2825"}, {"name": "Ciudad Escolar", "lat": 40.52460641, "lng": -3.68593604, "feed": "mdb-2825"}, {"name": "Tres Cantos - Avda Parque 28", "lat": 40.59352808, "lng": -3.70612765, "feed": "mdb-2825"}, {"name": "Tres Cantos Nuevo", "lat": 40.6193255, "lng": -3.72224495, "feed": "mdb-2825"}, {"name": "Tres Cantos Nuevo", "lat": 40.61695919, "lng": -3.72228449, "feed": "mdb-2825"}, {"name": "Tres Cantos - Avd Artesanos 66", "lat": 40.61655984, "lng": -3.71395998, "feed": "mdb-2825"}, {"name": "Tres Cantos - Avda Encuartes 9", "lat": 40.59990338, "lng": -3.71241185, "feed": "mdb-2825"}, {"name": "Tres Cantos - Av del Parque 30", "lat": 40.59307716, "lng": -3.70619411, "feed": "mdb-2825"}, {"name": "Avenida de España.Comvalencia", "lat": 40.61838356, "lng": -3.71626098, "feed": "mdb-2825"}, {"name": "Av.Comunidad Valenciana-Galici", "lat": 40.61619601, "lng": -3.72038742, "feed": "mdb-2825"}, {"name": "Av.S.Isidro Labrador-Margarita", "lat": 40.62152452, "lng": -3.72692373, "feed": "mdb-2825"}, {"name": "Av.S.Isidro Labrador-Gran Via", "lat": 40.62650008, "lng": -3.72652839, "feed": "mdb-2825"}, {"name": "Av.Gran Via-Pza.Hoya Tocon", "lat": 40.62634538, "lng": -3.72099304, "feed": "mdb-2825"}, {"name": "Av.21 De Marzo-Finlandia", "lat": 40.62471245, "lng": -3.71557229, "feed": "mdb-2825"}, {"name": "Av.21 De Marzo-Eslovaquia", "lat": 40.62090859, "lng": -3.71301346, "feed": "mdb-2825"}, {"name": "Av.Juan Pablo Ii-Emilio Tuñon", "lat": 40.62303655, "lng": -3.70539828, "feed": "mdb-2825"}, {"name": "Av.21 De Marzo-Dinamarca", "lat": 40.62107131, "lng": -3.71290861, "feed": "mdb-2825"}, {"name": "Av.21 De Marzo-Belgica", "lat": 40.62483048, "lng": -3.71538436, "feed": "mdb-2825"}, {"name": "Av.S.Isidro Labrador-C.Garcia", "lat": 40.6211985, "lng": -3.72717984, "feed": "mdb-2825"}, {"name": "Av.Comunidad Valenciana-Galici", "lat": 40.61616163, "lng": -3.72016225, "feed": "mdb-2825"}, {"name": "Herrera Del Pisuerga", "lat": 42.59586718, "lng": -4.33461365, "feed": "mdb-2825"}, {"name": "San Cristobal De Boedo-Osorno", "lat": 42.54180116, "lng": -4.35318894, "feed": "mdb-2825"}, {"name": "Santa Cruz De Boedo", "lat": 42.52624708, "lng": -4.37472413, "feed": "mdb-2825"}, {"name": "Villaprovedo", "lat": 42.51579117, "lng": -4.39559813, "feed": "mdb-2825"}, {"name": "Villanuño De Valdavia", "lat": 42.50689199, "lng": -4.52019697, "feed": "mdb-2825"}, {"name": "Villamelendro", "lat": 42.53894153, "lng": -4.57388656, "feed": "mdb-2825"}, {"name": "Villaeles De Valdavia", "lat": 42.56481802, "lng": -4.58209991, "feed": "mdb-2825"}, {"name": "Arenillas De San Pelayo", "lat": 42.58071989, "lng": -4.59590418, "feed": "mdb-2825"}, {"name": "Renedo De Valdavia", "lat": 42.59206217, "lng": -4.59772618, "feed": "mdb-2825"}, {"name": "Polvorosa De Valdavia", "lat": 42.61236206, "lng": -4.60291088, "feed": "mdb-2825"}, {"name": "Buenavista De Val-Ceip Valdav", "lat": 42.63396085, "lng": -4.61222603, "feed": "mdb-2825"}, {"name": "Palencia", "lat": 42.01631578, "lng": -4.53617505, "feed": "mdb-2825"}, {"name": "Carrion De Los Condes", "lat": 42.33707131, "lng": -4.6009972, "feed": "mdb-2825"}, {"name": "San Mames De Campos", "lat": 42.35603277, "lng": -4.5690548, "feed": "mdb-2825"}, {"name": "Villaherreros", "lat": 42.3883877, "lng": -4.45964221, "feed": "mdb-2825"}, {"name": "Villasarracino", "lat": 42.41267424, "lng": -4.49441903, "feed": "mdb-2825"}, {"name": "Castrillo De Villavega", "lat": 42.45567128, "lng": -4.48159623, "feed": "mdb-2825"}, {"name": "Villavega", "lat": 42.4622729, "lng": -4.48201678, "feed": "mdb-2825"}, {"name": "Barcena De Campos", "lat": 42.4837783, "lng": -4.49855005, "feed": "mdb-2825"}, {"name": "Arenillas De Nuño Perez", "lat": 42.51668728, "lng": -4.53250181, "feed": "mdb-2825"}, {"name": "Villasila De Valdavia", "lat": 42.53343827, "lng": -4.55857426, "feed": "mdb-2825"}, {"name": "Villamelendro", "lat": 42.54343123, "lng": -4.5663493, "feed": "mdb-2825"}, {"name": "Villabasta De Valdavia", "lat": 42.56067898, "lng": -4.60296302, "feed": "mdb-2825"}, {"name": "Buenavista De Valdavia", "lat": 42.63766502, "lng": -4.61425086, "feed": "mdb-2825"}, {"name": "La Puebla De Valdavia", "lat": 42.67565785, "lng": -4.6096523, "feed": "mdb-2825"}, {"name": "Barrio De La Puebla", "lat": 42.67173195, "lng": -4.62140596, "feed": "mdb-2825"}, {"name": "Congosto De Valdavia", "lat": 42.71545092, "lng": -4.63282787, "feed": "mdb-2825"}, {"name": "Baños De La Peña", "lat": 42.72782681, "lng": -4.64197113, "feed": "mdb-2825"}, {"name": "Cuerno (Santana)", "lat": 42.74154399, "lng": -4.65062222, "feed": "mdb-2825"}, {"name": "Roscales De La Peña", "lat": 42.76636509, "lng": -4.62893176, "feed": "mdb-2825"}, {"name": "Riosmenudos De La Peña", "lat": 42.75136105, "lng": -4.65794176, "feed": "mdb-2825"}, {"name": "Vega De Riacos", "lat": 42.75804116, "lng": -4.67383618, "feed": "mdb-2825"}, {"name": "Barajones", "lat": 42.76449324, "lng": -4.67253327, "feed": "mdb-2825"}, {"name": "Respenda De La Peña", "lat": 42.76552113, "lng": -4.6860969, "feed": "mdb-2825"}, {"name": "Viduerna", "lat": 42.78446598, "lng": -4.72421521, "feed": "mdb-2825"}, {"name": "Pino De Viduerna", "lat": 42.78971713, "lng": -4.717715, "feed": "mdb-2825"}, {"name": "Estación De Las Heras", "lat": 42.80189593, "lng": -4.74026777, "feed": "mdb-2825"}, {"name": "Santibañez De La Peña", "lat": 42.80893185, "lng": -4.73018429, "feed": "mdb-2825"}, {"name": "Aviñante De La Peña", "lat": 42.82065113, "lng": -4.71112313, "feed": "mdb-2825"}, {"name": "Villafria De La Peña", "lat": 42.83013702, "lng": -4.71172817, "feed": "mdb-2825"}, {"name": "Villaverde De La Peña", "lat": 42.8279529, "lng": -4.67884326, "feed": "mdb-2825"}, {"name": "Velilla De La Peña", "lat": 42.82879916, "lng": -4.66569789, "feed": "mdb-2825"}, {"name": "Tarilonte De La Peña", "lat": 42.81847904, "lng": -4.66641064, "feed": "mdb-2825"}, {"name": "Pison De Castrejon", "lat": 42.80931401, "lng": -4.62255187, "feed": "mdb-2825"}, {"name": "Castrejon De La Peña", "lat": 42.80744846, "lng": -4.59881366, "feed": "mdb-2825"}, {"name": "Cubillo De Castrejon", "lat": 42.80885335, "lng": -4.56705117, "feed": "mdb-2825"}, {"name": "Cantoral De La Peña", "lat": 42.81231516, "lng": -4.54849421, "feed": "mdb-2825"}, {"name": "Alto De La Dehesa", "lat": 42.82487096, "lng": -4.51705373, "feed": "mdb-2825"}, {"name": "Vado", "lat": 42.85421729, "lng": -4.48349215, "feed": "mdb-2825"}, {"name": "Cervera De Pisuerga", "lat": 42.86687507, "lng": -4.50051587, "feed": "mdb-2825"}, {"name": "Tabanera De Valdavia", "lat": 42.64729186, "lng": -4.69325486, "feed": "mdb-2825"}, {"name": "Ayuela", "lat": 42.62623394, "lng": -4.65995628, "feed": "mdb-2825"}, {"name": "Valderrabano", "lat": 42.60584982, "lng": -4.65478991, "feed": "mdb-2825"}, {"name": "Membrillar", "lat": 42.55913428, "lng": -4.69430911, "feed": "mdb-2825"}, {"name": "Villasur", "lat": 42.58213911, "lng": -4.69849628, "feed": "mdb-2825"}, {"name": "Villorquite Del Paramo", "lat": 42.56485584, "lng": -4.72769879, "feed": "mdb-2825"}, {"name": "Villafruel", "lat": 42.57553405, "lng": -4.72996312, "feed": "mdb-2825"}, {"name": "Carbonera", "lat": 42.59257783, "lng": -4.73637223, "feed": "mdb-2825"}, {"name": "Saldaña", "lat": 42.52100337, "lng": -4.73846295, "feed": "mdb-2825"}, {"name": "Saldaña-Ies Condes De Saldaña", "lat": 42.51722815, "lng": -4.74386193, "feed": "mdb-2825"}, {"name": "Villanueva Del Monte", "lat": 42.53398716, "lng": -4.6653438, "feed": "mdb-2825"}, {"name": "Vega De Doña Olimpia", "lat": 42.5232889, "lng": -4.64334107, "feed": "mdb-2825"}, {"name": "Relea De La Loma", "lat": 42.52281391, "lng": -4.70508014, "feed": "mdb-2825"}, {"name": "Villalafuente", "lat": 42.53784374, "lng": -4.71659029, "feed": "mdb-2825"}, {"name": "Dipos (Saldaña)", "lat": 42.53376887, "lng": -4.73352577, "feed": "mdb-2825"}, {"name": "Saldaña-Ceip Villa Y Tierra", "lat": 42.51856199, "lng": -4.74475403, "feed": "mdb-2825"}, {"name": "Barriosuso", "lat": 42.64431821, "lng": -4.62959123, "feed": "mdb-2825"}, {"name": "Valles De Valdavia", "lat": 42.58157876, "lng": -4.63853224, "feed": "mdb-2825"}, {"name": "Valenoso", "lat": 42.5463579, "lng": -4.64470528, "feed": "mdb-2825"}, {"name": "Corban", "lat": 43.46598438, "lng": -3.86782837, "feed": "mdb-2825"}, {"name": "El Mazo S/N", "lat": 43.4668398, "lng": -3.86809193, "feed": "mdb-2825"}, {"name": "El Mazo.30", "lat": 43.46791811, "lng": -3.86563509, "feed": "mdb-2825"}, {"name": "El Mazo.2", "lat": 43.46892079, "lng": -3.85989062, "feed": "mdb-2825"}, {"name": "El Somo.55", "lat": 43.46652238, "lng": -3.85908103, "feed": "mdb-2825"}, {"name": "Barrio El Somo.37", "lat": 43.46608923, "lng": -3.85657605, "feed": "mdb-2825"}, {"name": "El Somo", "lat": 43.46560221, "lng": -3.85415015, "feed": "mdb-2825"}, {"name": "Corceño", "lat": 43.46361921, "lng": -3.85688946, "feed": "mdb-2825"}, {"name": "Polideportivo", "lat": 43.45966866, "lng": -3.85594695, "feed": "mdb-2825"}, {"name": "Complejo Ruth Beitia", "lat": 43.46028459, "lng": -3.853505, "feed": "mdb-2825"}, {"name": "Avda Del Deporte.9", "lat": 43.46100595, "lng": -3.84885659, "feed": "mdb-2825"}, {"name": "Avda Del Deporte.11", "lat": 43.46136519, "lng": -3.84720476, "feed": "mdb-2825"}, {"name": "Avda. Del Deporte.2", "lat": 43.46202696, "lng": -3.84451128, "feed": "mdb-2825"}, {"name": "La Cavaduca", "lat": 43.4626406, "lng": -3.84185333, "feed": "mdb-2825"}, {"name": "Lavapies.1", "lat": 43.46270419, "lng": -3.83897594, "feed": "mdb-2825"}, {"name": "La Albericia.1", "lat": 43.46304797, "lng": -3.83935008, "feed": "mdb-2825"}, {"name": "Emilio Diaz Caneja", "lat": 43.4608289, "lng": -3.83289857, "feed": "mdb-2825"}, {"name": "General Davila.125", "lat": 43.46179434, "lng": -3.82894918, "feed": "mdb-2825"}, {"name": "Grupo San Francisco", "lat": 43.462899, "lng": -3.82502499, "feed": "mdb-2825"}, {"name": "Colegio La Salle", "lat": 43.46254377, "lng": -3.82376162, "feed": "mdb-2825"}, {"name": "Camilo Alonso Veg.19", "lat": 43.46043528, "lng": -3.82579275, "feed": "mdb-2825"}, {"name": "Camilo Alonso Vega.9", "lat": 43.45965377, "lng": -3.82652041, "feed": "mdb-2825"}, {"name": "Cuatro Caminos", "lat": 43.45922691, "lng": -3.82429275, "feed": "mdb-2825"}, {"name": "C/San Fernando", "lat": 43.4604009, "lng": -3.81993139, "feed": "mdb-2825"}, {"name": "Jesus De Monaster.21", "lat": 43.46172787, "lng": -3.81241419, "feed": "mdb-2825"}, {"name": "Plaza Ayuntamiento", "lat": 43.46161099, "lng": -3.81000662, "feed": "mdb-2825"}, {"name": "Correos_", "lat": 43.46147921, "lng": -3.80654939, "feed": "mdb-2825"}, {"name": "Jardines De Pereda", "lat": 43.46173418, "lng": -3.80350183, "feed": "mdb-2825"}, {"name": "Santander E.A.", "lat": 43.45951798, "lng": -3.80968003, "feed": "mdb-2825"}, {"name": "Jesus Monasterio 12", "lat": 43.46184304, "lng": -3.81280322, "feed": "mdb-2825"}, {"name": "Av.Pedro S.Martin.8", "lat": 43.45881782, "lng": -3.82796254, "feed": "mdb-2825"}, {"name": "Av.Pedro S.Martin.12", "lat": 43.46049143, "lng": -3.82925112, "feed": "mdb-2825"}, {"name": "Albericia.22", "lat": 43.46197081, "lng": -3.83554621, "feed": "mdb-2825"}, {"name": "Barrio La Torre", "lat": 43.46424545, "lng": -3.84117323, "feed": "mdb-2825"}, {"name": "La Gloria.120", "lat": 43.46553174, "lng": -3.84397156, "feed": "mdb-2825"}, {"name": "La Gloria.144", "lat": 43.46546642, "lng": -3.84619177, "feed": "mdb-2825"}, {"name": "La Gloria.234", "lat": 43.46546356, "lng": -3.84989422, "feed": "mdb-2825"}, {"name": "Barrio El Somo.118", "lat": 43.46597922, "lng": -3.86368761, "feed": "mdb-2825"}, {"name": "Lavapies.34", "lat": 43.46273341, "lng": -3.84041291, "feed": "mdb-2825"}, {"name": "Avda Del Deporte.10", "lat": 43.46129013, "lng": -3.84790434, "feed": "mdb-2825"}, {"name": "Instituto Albericia", "lat": 43.46105751, "lng": -3.84914365, "feed": "mdb-2825"}, {"name": "Casa Del Derpote", "lat": 43.46057508, "lng": -3.85135297, "feed": "mdb-2825"}, {"name": "Virgen Del Mar.18", "lat": 43.46826532, "lng": -3.87024855, "feed": "mdb-2825"}, {"name": "Ciriego (Stder)", "lat": 43.4717237, "lng": -3.86964121, "feed": "mdb-2825"}, {"name": "S.C.Bezana Plaza Margarita", "lat": 43.44048317, "lng": -3.89955305, "feed": "mdb-2825"}, {"name": "S.C.Bezana Bezana Lago", "lat": 43.44011705, "lng": -3.90163689, "feed": "mdb-2825"}, {"name": "S.C.Bezana Centro De Salud", "lat": 43.43884509, "lng": -3.90771884, "feed": "mdb-2825"}, {"name": "S.C.Bezana Barrio Bojar", "lat": 43.43678817, "lng": -3.90703874, "feed": "mdb-2825"}, {"name": "S.C.Bezana Bezana Bella", "lat": 43.43480974, "lng": -3.90979008, "feed": "mdb-2825"}, {"name": "S.C.Bezana La Tejera", "lat": 43.43629313, "lng": -3.90511016, "feed": "mdb-2825"}, {"name": "S.C.Bezana Av.Juan De Herrera", "lat": 43.42892719, "lng": -3.90991098, "feed": "mdb-2825"}, {"name": "S.C.Bezana El Cotero", "lat": 43.4224562, "lng": -3.90936495, "feed": "mdb-2825"}, {"name": "S.C.Bezana Urb.Juan De Herrera", "lat": 43.41977017, "lng": -3.90930822, "feed": "mdb-2825"}, {"name": "S.C.Bezana Barrio Pomar", "lat": 43.41661203, "lng": -3.91148776, "feed": "mdb-2825"}, {"name": "S.C.Bezana La Jaya", "lat": 43.41767888, "lng": -3.91458116, "feed": "mdb-2825"}, {"name": "S.C.Bezana Escuela De Musica", "lat": 43.42241094, "lng": -3.9187351, "feed": "mdb-2825"}, {"name": "S.C.Bezana Alto San Mateo", "lat": 43.42394016, "lng": -3.9212458, "feed": "mdb-2825"}, {"name": "S.C.Bezana Avda.Santa Cruz", "lat": 43.42818291, "lng": -3.91810026, "feed": "mdb-2825"}, {"name": "S.C.Bezana Avda.De La Libertad", "lat": 43.43402422, "lng": -3.9178029, "feed": "mdb-2825"}, {"name": "S.C.Bezana Avda.De Los Condes", "lat": 43.43587201, "lng": -3.91896486, "feed": "mdb-2825"}, {"name": "S.C.Bezana Av.Mompia-Urb.Faro", "lat": 43.43935616, "lng": -3.92114725, "feed": "mdb-2825"}, {"name": "S.C.Bezana Iglesia De Mompia", "lat": 43.44049177, "lng": -3.91839476, "feed": "mdb-2825"}, {"name": "S.C.Bezana Av.Mompia-Ur.Alamos", "lat": 43.44281797, "lng": -3.90486494, "feed": "mdb-2825"}, {"name": "S.C.Bezana Ayuntamiento", "lat": 43.44027404, "lng": -3.90521903, "feed": "mdb-2825"}, {"name": "S.C.Bezana Alto Lloreo", "lat": 43.44935027, "lng": -3.90305726, "feed": "mdb-2825"}, {"name": "S.C.Bezana La Gesa", "lat": 43.45107086, "lng": -3.90837316, "feed": "mdb-2825"}, {"name": "S.C.Bezana Ermita El Carmen", "lat": 43.45389898, "lng": -3.90970528, "feed": "mdb-2825"}, {"name": "S.C.Bezana St.Cruz De Liencres", "lat": 43.46397387, "lng": -3.91293104, "feed": "mdb-2825"}, {"name": "S.C.Bezana Las Higueras", "lat": 43.46267096, "lng": -3.905423, "feed": "mdb-2825"}, {"name": "S.C.Bezana Los Calderones", "lat": 43.46269503, "lng": -3.90118025, "feed": "mdb-2825"}, {"name": "S.C.Bezana Camping La Canal", "lat": 43.4678929, "lng": -3.89850281, "feed": "mdb-2825"}, {"name": "S.C.Bezana Playa S.J.La Canal", "lat": 43.47248286, "lng": -3.89615082, "feed": "mdb-2825"}, {"name": "S.C.Bezana Av.S.J.De La Canal", "lat": 43.46569733, "lng": -3.89633589, "feed": "mdb-2825"}, {"name": "S.C.Bezana Urb.La Canal", "lat": 43.46792384, "lng": -3.89025795, "feed": "mdb-2825"}, {"name": "S.C.Bezana C/J.Mier (Hergom)", "lat": 43.46814214, "lng": -3.88699897, "feed": "mdb-2825"}, {"name": "S.C.Bezana Murillo", "lat": 43.46671891, "lng": -3.8825998, "feed": "mdb-2825"}, {"name": "S.C.Bezana Urb.Los Olivos", "lat": 43.46557242, "lng": -3.87392235, "feed": "mdb-2825"}, {"name": "S.C.Bezana Urb.La Roca", "lat": 43.46450385, "lng": -3.8748918, "feed": "mdb-2825"}, {"name": "S.C.Bezana Calle La Nueva", "lat": 43.46079223, "lng": -3.88696172, "feed": "mdb-2825"}, {"name": "S.C.Bezana Urb.El Palacio", "lat": 43.45834628, "lng": -3.89115005, "feed": "mdb-2825"}, {"name": "S.C.Bezana La Sierra", "lat": 43.455835, "lng": -3.89199974, "feed": "mdb-2825"}, {"name": "S.C.Bezana Naves Municipales", "lat": 43.450428, "lng": -3.89471213, "feed": "mdb-2825"}, {"name": "S.C.Bezana Barrio Bezania", "lat": 43.44666997, "lng": -3.89337828, "feed": "mdb-2825"}, {"name": "S.C.Bezana Urb.Arco Iris", "lat": 43.44416901, "lng": -3.89907577, "feed": "mdb-2825"}, {"name": "S.C.Bezana Urb.El Parque", "lat": 43.44266786, "lng": -3.90273697, "feed": "mdb-2825"}, {"name": "Astillero Cantabria-Intercamb", "lat": 43.39469238, "lng": -3.81566286, "feed": "mdb-2825"}, {"name": "Astillero Calle Industria.40", "lat": 43.39596836, "lng": -3.8174946, "feed": "mdb-2825"}, {"name": "Astillero Calle Industria.20", "lat": 43.39793876, "lng": -3.82085385, "feed": "mdb-2825"}, {"name": "Astillero Plaza Constitucion", "lat": 43.40009595, "lng": -3.82125779, "feed": "mdb-2825"}, {"name": "Astillero - Ayuntamiento", "lat": 43.40022486, "lng": -3.81914186, "feed": "mdb-2825"}, {"name": "Astillero Centro De Salud", "lat": 43.40335436, "lng": -3.82297208, "feed": "mdb-2825"}, {"name": "Astillero Residencia San Pedro", "lat": 43.40041738, "lng": -3.82528683, "feed": "mdb-2825"}, {"name": "Astillero La Halcanera", "lat": 43.39859365, "lng": -3.82527881, "feed": "mdb-2825"}, {"name": "Astillero Iglesia De Muslera", "lat": 43.39801669, "lng": -3.82902824, "feed": "mdb-2825"}, {"name": "Astillero Lavadero Salguera", "lat": 43.39863949, "lng": -3.83036152, "feed": "mdb-2825"}, {"name": "Astillero Gregorio De La Torre", "lat": 43.40031024, "lng": -3.83118715, "feed": "mdb-2825"}, {"name": "Astillero Ies Los Remedios", "lat": 43.40158679, "lng": -3.83468677, "feed": "mdb-2825"}, {"name": "Astillero El Torco", "lat": 43.40301001, "lng": -3.83760714, "feed": "mdb-2825"}, {"name": "Astillero Residencia El Carmen", "lat": 43.40159939, "lng": -3.84334875, "feed": "mdb-2825"}, {"name": "Astillero Barrio San Isidro", "lat": 43.39890534, "lng": -3.84779376, "feed": "mdb-2825"}, {"name": "Astillero Boo Carretera Vieja", "lat": 43.40494432, "lng": -3.83678666, "feed": "mdb-2825"}, {"name": "Astillero S.Camilo Parque", "lat": 43.40695196, "lng": -3.84278611, "feed": "mdb-2825"}, {"name": "Astillero S.Camilo Escuelas", "lat": 43.40445329, "lng": -3.84567439, "feed": "mdb-2825"}, {"name": "Astillero Barrio Rivas", "lat": 43.40005699, "lng": -3.84952294, "feed": "mdb-2825"}, {"name": "Astillero Los Mozos", "lat": 43.3989443, "lng": -3.85010851, "feed": "mdb-2825"}, {"name": "Astillero Iglesia Del Pilar", "lat": 43.39659002, "lng": -3.85239862, "feed": "mdb-2825"}, {"name": "Astillero Ramon Y Cajal", "lat": 43.39581309, "lng": -3.85380408, "feed": "mdb-2825"}, {"name": "Astillero Polidep. Guarnizo", "lat": 43.3934611, "lng": -3.85582892, "feed": "mdb-2825"}, {"name": "La Gandara", "lat": 43.19540277, "lng": -3.56861033, "feed": "mdb-2825"}, {"name": "Veguilla", "lat": 43.18589167, "lng": -3.52220075, "feed": "mdb-2825"}, {"name": "Regules", "lat": 43.20159071, "lng": -3.50340773, "feed": "mdb-2825"}, {"name": "Casatablas", "lat": 43.20946716, "lng": -3.47727742, "feed": "mdb-2825"}, {"name": "Ramales De La Victoria", "lat": 43.25829348, "lng": -3.46306005, "feed": "mdb-2825"}, {"name": "Valle De Ruesga", "lat": 43.27796598, "lng": -3.52592498, "feed": "mdb-2825"}, {"name": "Lastras", "lat": 43.28104792, "lng": -3.53818398, "feed": "mdb-2825"}, {"name": "Riva De Ruesga", "lat": 43.28140373, "lng": -3.56047433, "feed": "mdb-2825"}, {"name": "Arredondo", "lat": 43.27447094, "lng": -3.60172729, "feed": "mdb-2825"}, {"name": "Tabladillo", "lat": 43.28907678, "lng": -3.65106583, "feed": "mdb-2825"}, {"name": "Las Calzadillas", "lat": 43.3076939, "lng": -3.64253621, "feed": "mdb-2825"}, {"name": "Camposdelante", "lat": 43.3307354, "lng": -3.6477931, "feed": "mdb-2825"}, {"name": "Riotuerto", "lat": 43.34351236, "lng": -3.6749513, "feed": "mdb-2825"}, {"name": "La Cavada", "lat": 43.35216402, "lng": -3.7047451, "feed": "mdb-2825"}, {"name": "Ceceñas", "lat": 43.3727905, "lng": -3.71689181, "feed": "mdb-2825"}, {"name": "Solares", "lat": 43.3847, "lng": -3.74018713, "feed": "mdb-2825"}, {"name": "Heras", "lat": 43.39638433, "lng": -3.76725709, "feed": "mdb-2825"}, {"name": "Muriedas/Maliaño", "lat": 43.41834064, "lng": -3.8404788, "feed": "mdb-2825"}, {"name": "Solares", "lat": 43.38666696, "lng": -3.732058, "feed": "mdb-2825"}, {"name": "Hoznayo", "lat": 43.38850043, "lng": -3.68769159, "feed": "mdb-2825"}, {"name": "Entrambasaguas", "lat": 43.37669177, "lng": -3.67537586, "feed": "mdb-2825"}, {"name": "Anero/Hoz Anero", "lat": 43.39991604, "lng": -3.64458568, "feed": "mdb-2825"}, {"name": "Hoznayo - El Termino", "lat": 43.3896601, "lng": -3.69820193, "feed": "mdb-2825"}, {"name": "Alto Marín", "lat": 43.38668014, "lng": -3.67544175, "feed": "mdb-2825"}, {"name": "Beranga", "lat": 43.41438724, "lng": -3.57863709, "feed": "mdb-2825"}, {"name": "Gama", "lat": 43.42378374, "lng": -3.52277371, "feed": "mdb-2825"}, {"name": "Escalante", "lat": 43.43621693, "lng": -3.51234588, "feed": "mdb-2825"}, {"name": "Argoños", "lat": 43.45592668, "lng": -3.48770869, "feed": "mdb-2825"}, {"name": "Berria", "lat": 43.46285947, "lng": -3.46880108, "feed": "mdb-2825"}, {"name": "Santoña", "lat": 43.44585408, "lng": -3.45512515, "feed": "mdb-2825"}, {"name": "Noja", "lat": 43.4808343, "lng": -3.52186901, "feed": "mdb-2825"}, {"name": "Hoznayo - El Termino", "lat": 43.38997981, "lng": -3.70195881, "feed": "mdb-2825"}, {"name": "Universidad De Santander", "lat": 43.47187209, "lng": -3.79555089, "feed": "mdb-2825"}, {"name": "Castro Urdiales", "lat": 43.37028667, "lng": -3.21655584, "feed": "mdb-2825"}, {"name": "El Hoyo", "lat": 43.39010414, "lng": -3.23082077, "feed": "mdb-2825"}, {"name": "Allendelagua", "lat": 43.39723746, "lng": -3.24770985, "feed": "mdb-2825"}, {"name": "Cerdigo", "lat": 43.39978082, "lng": -3.26695951, "feed": "mdb-2825"}, {"name": "Islares", "lat": 43.40402529, "lng": -3.30037899, "feed": "mdb-2825"}, {"name": "Arenillas", "lat": 43.40362079, "lng": -3.31052207, "feed": "mdb-2825"}, {"name": "Casa Tablas", "lat": 43.38913641, "lng": -3.31772586, "feed": "mdb-2825"}, {"name": "Guriezo (El Puente)", "lat": 43.34672092, "lng": -3.32573352, "feed": "mdb-2825"}, {"name": "Cicero", "lat": 43.41054842, "lng": -3.48633359, "feed": "mdb-2825"}, {"name": "Treto", "lat": 43.39395671, "lng": -3.47234254, "feed": "mdb-2825"}, {"name": "Colindres", "lat": 43.39480984, "lng": -3.45772982, "feed": "mdb-2825"}, {"name": "La Pesquera", "lat": 43.40292808, "lng": -3.42949618, "feed": "mdb-2825"}, {"name": "Laredo", "lat": 43.40959903, "lng": -3.41318464, "feed": "mdb-2825"}, {"name": "Tarrueza", "lat": 43.39926115, "lng": -3.39849916, "feed": "mdb-2825"}, {"name": "Liendo", "lat": 43.3976265, "lng": -3.36381058, "feed": "mdb-2825"}, {"name": "Pontarron", "lat": 43.38012436, "lng": -3.32040501, "feed": "mdb-2825"}, {"name": "J.Saiz Maza-Marga.9", "lat": 43.4526717, "lng": -3.82774826, "feed": "mdb-2825"}, {"name": "San Miguel De Meruelo", "lat": 43.4555829, "lng": -3.57537123, "feed": "mdb-2825"}, {"name": "Arnuero", "lat": 43.46990685, "lng": -3.5663185, "feed": "mdb-2825"}, {"name": "Castillo Siete Villas", "lat": 43.46538048, "lng": -3.53337343, "feed": "mdb-2825"}, {"name": "San Salvador", "lat": 43.39092633, "lng": -3.81480514, "feed": "mdb-2825"}, {"name": "Sobremazas", "lat": 43.37455521, "lng": -3.74915907, "feed": "mdb-2825"}, {"name": "S.Vitores", "lat": 43.36909091, "lng": -3.75530175, "feed": "mdb-2825"}, {"name": "Pamanes", "lat": 43.35490276, "lng": -3.77651208, "feed": "mdb-2825"}, {"name": "Lierganes", "lat": 43.34343787, "lng": -3.74495987, "feed": "mdb-2825"}, {"name": "Rubalcaba", "lat": 43.32471361, "lng": -3.74274538, "feed": "mdb-2825"}, {"name": "Mirones", "lat": 43.29417611, "lng": -3.70167978, "feed": "mdb-2825"}, {"name": "La Carcoba", "lat": 43.2842118, "lng": -3.69874337, "feed": "mdb-2825"}, {"name": "Linto", "lat": 43.27335826, "lng": -3.70639121, "feed": "mdb-2825"}, {"name": "Ajanedo", "lat": 43.26057385, "lng": -3.7117455, "feed": "mdb-2825"}, {"name": "Merilla De Riomiera", "lat": 43.24895484, "lng": -3.70922391, "feed": "mdb-2825"}, {"name": "San Roque De Riomiera", "lat": 43.23457245, "lng": -3.70174739, "feed": "mdb-2825"}, {"name": "Muriedas/Maliaño", "lat": 43.41817678, "lng": -3.84583825, "feed": "mdb-2825"}, {"name": "Guarnizo", "lat": 43.3931305, "lng": -3.85789672, "feed": "mdb-2825"}, {"name": "Solia (La Concha)", "lat": 43.37599906, "lng": -3.85612055, "feed": "mdb-2825"}, {"name": "Villanueva De Villaescusa", "lat": 43.37058519, "lng": -3.85946262, "feed": "mdb-2825"}, {"name": "Obregon (Villaescusa)", "lat": 43.34580419, "lng": -3.86144906, "feed": "mdb-2825"}, {"name": "Saron", "lat": 43.32326976, "lng": -3.8546068, "feed": "mdb-2825"}, {"name": "Santa Maria De Cayon", "lat": 43.30982244, "lng": -3.85365683, "feed": "mdb-2825"}, {"name": "Ruda", "lat": 43.28919596, "lng": -3.84007773, "feed": "mdb-2825"}, {"name": "Vega De Carriedo", "lat": 43.25642277, "lng": -3.84947424, "feed": "mdb-2825"}, {"name": "Santibañez De Carriedo", "lat": 43.24123939, "lng": -3.84391655, "feed": "mdb-2825"}, {"name": "Barcena De Carriedo", "lat": 43.23889026, "lng": -3.82472247, "feed": "mdb-2825"}, {"name": "Villacarriedo", "lat": 43.22834784, "lng": -3.81085689, "feed": "mdb-2825"}, {"name": "Selaya", "lat": 43.21539899, "lng": -3.80673159, "feed": "mdb-2825"}, {"name": "Riaño (Solorzano)", "lat": 43.35212964, "lng": -3.60194903, "feed": "mdb-2825"}, {"name": "Alto Bosque", "lat": 43.38964806, "lng": -3.71749284, "feed": "mdb-2825"}, {"name": "Navajeda", "lat": 43.36725515, "lng": -3.69710299, "feed": "mdb-2825"}, {"name": "S.Antonio", "lat": 43.3721929, "lng": -3.6613785, "feed": "mdb-2825"}, {"name": "Hornedo", "lat": 43.36388903, "lng": -3.63025887, "feed": "mdb-2825"}, {"name": "Noja - Calle Helgueras. 1025", "lat": 43.47015322, "lng": -3.5115827, "feed": "mdb-2825"}, {"name": "Noja - Calle Fonegra.1209", "lat": 43.47379838, "lng": -3.52412302, "feed": "mdb-2825"}, {"name": "Noja - Calle del Carmen.s/n", "lat": 43.47420747, "lng": -3.5260791, "feed": "mdb-2825"}, {"name": "Noja - Calle las Viñas.14-16", "lat": 43.47691126, "lng": -3.52083654, "feed": "mdb-2825"}, {"name": "Noja - Calle los Pinares.25 A", "lat": 43.48652549, "lng": -3.52096545, "feed": "mdb-2825"}, {"name": "Noja - Calle del Arenal.9 A", "lat": 43.48969738, "lng": -3.52449487, "feed": "mdb-2825"}, {"name": "Noja - Avenida Ris. 39", "lat": 43.48512862, "lng": -3.53087361, "feed": "mdb-2825"}, {"name": "Noja - Calle Los Nogales. 1-3", "lat": 43.48289007, "lng": -3.52811081, "feed": "mdb-2825"}, {"name": "Noja -C.Salud S.Miguel Meruelo", "lat": 43.45610143, "lng": -3.5728124, "feed": "mdb-2825"}, {"name": "Noja - Ceip De Palacio", "lat": 43.48094373, "lng": -3.52865627, "feed": "mdb-2825"}, {"name": "Gibaja", "lat": 43.28249292, "lng": -3.43851683, "feed": "mdb-2825"}, {"name": "Rasines", "lat": 43.3053018, "lng": -3.42833078, "feed": "mdb-2825"}, {"name": "Ampuero", "lat": 43.34221346, "lng": -3.41808916, "feed": "mdb-2825"}, {"name": "Limpias", "lat": 43.36058593, "lng": -3.42554563, "feed": "mdb-2825"}, {"name": "Lloreda (Cayon)", "lat": 43.29722596, "lng": -3.822461, "feed": "mdb-2825"}, {"name": "Esles", "lat": 43.28275591, "lng": -3.80235706, "feed": "mdb-2825"}, {"name": "Llerana", "lat": 43.27285176, "lng": -3.81261186, "feed": "mdb-2825"}, {"name": "Saro", "lat": 43.26237294, "lng": -3.82872114, "feed": "mdb-2825"}, {"name": "La Encina", "lat": 43.32080776, "lng": -3.86749319, "feed": "mdb-2825"}, {"name": "La Penilla (Sta. Maria Cayon)", "lat": 43.3187749, "lng": -3.8852142, "feed": "mdb-2825"}, {"name": "La Cueva", "lat": 43.31558525, "lng": -3.90144323, "feed": "mdb-2825"}, {"name": "Pomaluengo", "lat": 43.31072714, "lng": -3.92902886, "feed": "mdb-2825"}, {"name": "Socobio (Castañeda)", "lat": 43.31082855, "lng": -3.93360565, "feed": "mdb-2825"}, {"name": "Vargas", "lat": 43.32175257, "lng": -3.9631061, "feed": "mdb-2825"}, {"name": "Las Presillas", "lat": 43.32387652, "lng": -3.9916033, "feed": "mdb-2825"}, {"name": "La Montaña", "lat": 43.32928925, "lng": -4.01336023, "feed": "mdb-2825"}, {"name": "Sierrapando", "lat": 43.34068997, "lng": -4.02924605, "feed": "mdb-2825"}, {"name": "Torrelavega", "lat": 43.34539624, "lng": -4.04716875, "feed": "mdb-2825"}, {"name": "Penagos", "lat": 43.34277381, "lng": -3.80011106, "feed": "mdb-2825"}, {"name": "El Arenal De Penagos", "lat": 43.34106124, "lng": -3.81779827, "feed": "mdb-2825"}, {"name": "Cabarceno", "lat": 43.35584413, "lng": -3.82276295, "feed": "mdb-2825"}, {"name": "Sobarzo", "lat": 43.33783205, "lng": -3.84953498, "feed": "mdb-2825"}, {"name": "Castro Urdiales", "lat": 43.37072441, "lng": -3.21460148, "feed": "mdb-2825"}, {"name": "Mirador De Candina", "lat": 43.39145976, "lng": -3.33794497, "feed": "mdb-2825"}, {"name": "Hospital Comarcal De Laredo", "lat": 43.41426004, "lng": -3.4413438, "feed": "mdb-2825"}, {"name": "Sta Maria. Cruce", "lat": 43.21081419, "lng": -3.4747587, "feed": "mdb-2825"}, {"name": "Rozas De Soba. Cruce", "lat": 43.20856189, "lng": -3.48020925, "feed": "mdb-2825"}, {"name": "La Revilla (Soba) Cruce", "lat": 43.20660581, "lng": -3.48740273, "feed": "mdb-2825"}, {"name": "San Bartolome. Cruce(Veguilla)", "lat": 43.1876558, "lng": -3.51399428, "feed": "mdb-2825"}, {"name": "San Bartolome (Veguilla)", "lat": 43.17413686, "lng": -3.51253495, "feed": "mdb-2825"}, {"name": "Villar De Soba", "lat": 43.1793101, "lng": -3.52320916, "feed": "mdb-2825"}, {"name": "Bustancilles. Cruce", "lat": 43.17779864, "lng": -3.55240365, "feed": "mdb-2825"}, {"name": "Lavin", "lat": 43.17923218, "lng": -3.55040402, "feed": "mdb-2825"}, {"name": "Bustancilles", "lat": 43.17845582, "lng": -3.55330491, "feed": "mdb-2825"}, {"name": "Valcaba", "lat": 43.17656506, "lng": -3.56553011, "feed": "mdb-2825"}, {"name": "Cañedo De Soba", "lat": 43.18189529, "lng": -3.57390503, "feed": "mdb-2825"}, {"name": "Bustablado", "lat": 43.28027386, "lng": -3.65209945, "feed": "mdb-2825"}, {"name": "Rada", "lat": 43.36677444, "lng": -3.49045889, "feed": "mdb-2825"}, {"name": "Badames", "lat": 43.35462774, "lng": -3.49699061, "feed": "mdb-2825"}, {"name": "Secadura (Voto)", "lat": 43.35511991, "lng": -3.53424375, "feed": "mdb-2825"}, {"name": "San Pantaleon De Aras", "lat": 43.34580419, "lng": -3.49802193, "feed": "mdb-2825"}, {"name": "S.Miguel Aras", "lat": 43.3279852, "lng": -3.50770492, "feed": "mdb-2825"}, {"name": "Puente Del Arrudo", "lat": 43.30901915, "lng": -4.47029808, "feed": "mdb-2825"}, {"name": "Cades", "lat": 43.30010336, "lng": -4.46220849, "feed": "mdb-2825"}, {"name": "Quintanilla", "lat": 43.2483286, "lng": -4.47383896, "feed": "mdb-2825"}, {"name": "Sobrelapeña", "lat": 43.25290825, "lng": -4.48424559, "feed": "mdb-2825"}, {"name": "La Fuente", "lat": 43.25451769, "lng": -4.51250559, "feed": "mdb-2825"}, {"name": "Piñeres -C", "lat": 43.24145998, "lng": -4.56119554, "feed": "mdb-2825"}, {"name": "Roza", "lat": 43.25537712, "lng": -4.56384318, "feed": "mdb-2825"}, {"name": "Navedo", "lat": 43.25318155, "lng": -4.57850918, "feed": "mdb-2825"}, {"name": "Linares (Peñarrubia)", "lat": 43.25240003, "lng": -4.58463524, "feed": "mdb-2825"}, {"name": "Cabezon De La Sal", "lat": 43.30896071, "lng": -4.23810693, "feed": "mdb-2825"}, {"name": "Treceño (Valdaliga)", "lat": 43.3197919, "lng": -4.30833551, "feed": "mdb-2825"}, {"name": "Movellan", "lat": 43.3211968, "lng": -4.34706689, "feed": "mdb-2825"}, {"name": "La Cocina", "lat": 43.32015115, "lng": -4.35135834, "feed": "mdb-2825"}, {"name": "Labarces (Valdaliga)", "lat": 43.32456865, "lng": -4.39475646, "feed": "mdb-2825"}, {"name": "Bielva", "lat": 43.31364579, "lng": -4.46062598, "feed": "mdb-2825"}, {"name": "Rabago", "lat": 43.30034514, "lng": -4.4593013, "feed": "mdb-2825"}, {"name": "Celis", "lat": 43.28322803, "lng": -4.43546282, "feed": "mdb-2825"}, {"name": "Puentenansa", "lat": 43.25148559, "lng": -4.40719136, "feed": "mdb-2825"}, {"name": "Cosio", "lat": 43.23275961, "lng": -4.39846865, "feed": "mdb-2825"}, {"name": "Rozadio", "lat": 43.22307376, "lng": -4.38838345, "feed": "mdb-2825"}, {"name": "Sarceda", "lat": 43.19812145, "lng": -4.35715209, "feed": "mdb-2825"}, {"name": "Santotis", "lat": 43.16109233, "lng": -4.37217218, "feed": "mdb-2825"}, {"name": "La Lastra", "lat": 43.15275694, "lng": -4.37569129, "feed": "mdb-2825"}, {"name": "La Laguna", "lat": 43.11480766, "lng": -4.40683727, "feed": "mdb-2825"}, {"name": "Pejanda", "lat": 43.10690485, "lng": -4.43024775, "feed": "mdb-2825"}, {"name": "Treceño (Valdaliga)", "lat": 43.32031272, "lng": -4.30929178, "feed": "mdb-2825"}, {"name": "Santander E.A.", "lat": 43.45933463, "lng": -3.80971384, "feed": "mdb-2825"}, {"name": "Barrio Murillo", "lat": 43.46688449, "lng": -3.88315041, "feed": "mdb-2825"}, {"name": "Hergom", "lat": 43.46799202, "lng": -3.88649362, "feed": "mdb-2825"}, {"name": "Soto De La Marina", "lat": 43.46570764, "lng": -3.89636797, "feed": "mdb-2825"}, {"name": "Hospital Liencres", "lat": 43.46235584, "lng": -3.91461095, "feed": "mdb-2825"}, {"name": "Entrada Playa Portio", "lat": 43.46037455, "lng": -3.92795399, "feed": "mdb-2825"}, {"name": "Barrio Mortera", "lat": 43.4459681, "lng": -3.92545704, "feed": "mdb-2825"}, {"name": "Los Robles", "lat": 43.44378685, "lng": -3.92963161, "feed": "mdb-2825"}, {"name": "Barrio Rodil_", "lat": 43.43881415, "lng": -3.9210086, "feed": "mdb-2825"}, {"name": "Avenida Los Condes", "lat": 43.43584393, "lng": -3.91892303, "feed": "mdb-2825"}, {"name": "Avda Fernando Saiz", "lat": 43.46149697, "lng": -3.89306373, "feed": "mdb-2825"}, {"name": "Peñacastillo (Santander)", "lat": 43.43781491, "lng": -3.84005424, "feed": "mdb-2825"}, {"name": "Villaverde. Cruce", "lat": 43.19484127, "lng": -3.56006524, "feed": "mdb-2825"}, {"name": "Hazas De Soba", "lat": 43.19306109, "lng": -3.54956693, "feed": "mdb-2825"}, {"name": "Aja. Cruce", "lat": 43.19269325, "lng": -3.53376189, "feed": "mdb-2825"}, {"name": "Islares", "lat": 43.40422869, "lng": -3.29991432, "feed": "mdb-2825"}, {"name": "La Vega De Miera", "lat": 43.33444931, "lng": -3.74441498, "feed": "mdb-2825"}, {"name": "Lierganes", "lat": 43.34532348, "lng": -3.74528874, "feed": "mdb-2825"}, {"name": "San Roman (Sta.Maria De Cayon)", "lat": 43.30615608, "lng": -3.90961877, "feed": "mdb-2825"}, {"name": "Argomilla", "lat": 43.30890284, "lng": -3.87491873, "feed": "mdb-2825"}, {"name": "Santillana Del Mar", "lat": 43.38734363, "lng": -4.10401876, "feed": "mdb-2825"}, {"name": "Las Quintas", "lat": 43.38211653, "lng": -4.08703515, "feed": "mdb-2825"}, {"name": "Queveda", "lat": 43.38068357, "lng": -4.07940851, "feed": "mdb-2825"}, {"name": "Viveda", "lat": 43.37792019, "lng": -4.05925185, "feed": "mdb-2825"}, {"name": "Barreda - Solvay (Fabrica)", "lat": 43.3752101, "lng": -4.04358604, "feed": "mdb-2825"}, {"name": "Barreda - Avda. Solvay 85", "lat": 43.36991597, "lng": -4.04255815, "feed": "mdb-2825"}, {"name": "Barreda - Colonia El Salvador", "lat": 43.36438177, "lng": -4.04547222, "feed": "mdb-2825"}, {"name": "Herran", "lat": 43.38208502, "lng": -4.11034021, "feed": "mdb-2825"}, {"name": "Barreda - Colonia El Salvador", "lat": 43.36390278, "lng": -4.04559598, "feed": "mdb-2825"}, {"name": "Barreda - Solvay (Fabrica)", "lat": 43.37582087, "lng": -4.04399513, "feed": "mdb-2825"}, {"name": "Valdecilla Norte", "lat": 43.45735162, "lng": -3.83011228, "feed": "mdb-2825"}, {"name": "Cajo", "lat": 43.45428401, "lng": -3.83830672, "feed": "mdb-2825"}, {"name": "Campogiro 54", "lat": 43.45419864, "lng": -3.84500001, "feed": "mdb-2825"}, {"name": "Camarreal.54", "lat": 43.44696161, "lng": -3.86863281, "feed": "mdb-2825"}, {"name": "Ojaiz.100", "lat": 43.44140162, "lng": -3.88276997, "feed": "mdb-2825"}, {"name": "La Inmobiliaria", "lat": 43.35364512, "lng": -4.04384846, "feed": "mdb-2825"}, {"name": "La Llama 3", "lat": 43.34828509, "lng": -4.0448752, "feed": "mdb-2825"}, {"name": "Campuzano", "lat": 43.34385097, "lng": -4.05752324, "feed": "mdb-2825"}, {"name": "Santiago De Cartes", "lat": 43.33490424, "lng": -4.06335137, "feed": "mdb-2825"}, {"name": "Cartes", "lat": 43.32439734, "lng": -4.07176181, "feed": "mdb-2825"}, {"name": "Riocorvo", "lat": 43.31056499, "lng": -4.07295586, "feed": "mdb-2825"}, {"name": "Las Caldas Del Besaya", "lat": 43.3003079, "lng": -4.07514799, "feed": "mdb-2825"}, {"name": "Barros (Los Corrales Buelna)", "lat": 43.27918925, "lng": -4.07760426, "feed": "mdb-2825"}, {"name": "San Mateo (Los Corrales Buelna", "lat": 43.27318809, "lng": -4.07626583, "feed": "mdb-2825"}, {"name": "El Churrero", "lat": 43.2650985, "lng": -4.07240009, "feed": "mdb-2825"}, {"name": "Los Corrales De Buelna", "lat": 43.25822301, "lng": -4.06797915, "feed": "mdb-2825"}, {"name": "El Cuartel", "lat": 43.25399286, "lng": -4.0668338, "feed": "mdb-2825"}, {"name": "Hospital De Reinosa", "lat": 43.00700851, "lng": -4.13356333, "feed": "mdb-2825"}, {"name": "Plaza", "lat": 43.00029861, "lng": -4.13912332, "feed": "mdb-2825"}, {"name": "Reinosa", "lat": 42.99455642, "lng": -4.14139509, "feed": "mdb-2825"}, {"name": "Mataporquera", "lat": 42.87386458, "lng": -4.1627372, "feed": "mdb-2825"}, {"name": "Cañeda", "lat": 43.02014815, "lng": -4.11384098, "feed": "mdb-2825"}, {"name": "Lantueno", "lat": 43.04948474, "lng": -4.08365985, "feed": "mdb-2825"}, {"name": "Santiurde De Reinosa", "lat": 43.05998878, "lng": -4.08249217, "feed": "mdb-2825"}, {"name": "Pesquera De Reinosa", "lat": 43.07950486, "lng": -4.07036494, "feed": "mdb-2825"}, {"name": "Barcena De Pie De Concha", "lat": 43.12626681, "lng": -4.05238209, "feed": "mdb-2825"}, {"name": "Helguera (Molledo)", "lat": 43.15735894, "lng": -4.04180185, "feed": "mdb-2825"}, {"name": "Arenas De Iguña", "lat": 43.18721978, "lng": -4.05396975, "feed": "mdb-2825"}, {"name": "Cieza - La Venta Rucieza", "lat": 43.22438412, "lng": -4.06688995, "feed": "mdb-2825"}, {"name": "Somahoz", "lat": 43.247515, "lng": -4.06233723, "feed": "mdb-2825"}, {"name": "Colonia La Palmera", "lat": 43.36000208, "lng": -4.04608013, "feed": "mdb-2825"}, {"name": "Barreda", "lat": 43.36929947, "lng": -4.04259998, "feed": "mdb-2825"}, {"name": "Solvay Feve", "lat": 43.37390089, "lng": -4.0406101, "feed": "mdb-2825"}, {"name": "Solvay 135", "lat": 43.37871488, "lng": -4.03860475, "feed": "mdb-2825"}, {"name": "Colegio", "lat": 43.38790226, "lng": -4.02923001, "feed": "mdb-2825"}, {"name": "Estación Feve", "lat": 43.38990074, "lng": -4.02726992, "feed": "mdb-2825"}, {"name": "Requejada", "lat": 43.3914208, "lng": -4.02213278, "feed": "mdb-2825"}, {"name": "Santa Olalla De Molledo -C", "lat": 43.13448876, "lng": -4.04564697, "feed": "mdb-2825"}, {"name": "Silio", "lat": 43.14789081, "lng": -4.02302373, "feed": "mdb-2825"}, {"name": "Molledo", "lat": 43.15052585, "lng": -4.04201786, "feed": "mdb-2825"}, {"name": "Santa Cruz De Iguña", "lat": 43.16626901, "lng": -4.04185227, "feed": "mdb-2825"}, {"name": "La Serna De Iguña", "lat": 43.17142792, "lng": -4.04350296, "feed": "mdb-2825"}, {"name": "Arenas De Iguña", "lat": 43.18577593, "lng": -4.04973789, "feed": "mdb-2825"}, {"name": "Barreda", "lat": 43.36773816, "lng": -4.04356828, "feed": "mdb-2825"}, {"name": "Torrelavega", "lat": 43.34443195, "lng": -4.05016532, "feed": "mdb-2825"}, {"name": "Boo De Pielagos", "lat": 43.42549402, "lng": -3.94318607, "feed": "mdb-2825"}, {"name": "Bezana", "lat": 43.43690505, "lng": -3.90413098, "feed": "mdb-2825"}, {"name": "Santander E.A.", "lat": 43.45925613, "lng": -3.81063, "feed": "mdb-2825"}, {"name": "Aeropuerto Santander-S.Ballest", "lat": 43.4233271, "lng": -3.82538824, "feed": "mdb-2825"}, {"name": "Poligono Riamar", "lat": 43.40926499, "lng": -3.82909872, "feed": "mdb-2825"}, {"name": "Avda Juan Carlos I", "lat": 43.41577494, "lng": -3.82187601, "feed": "mdb-2825"}, {"name": "Punta Parayas", "lat": 43.42114355, "lng": -3.81094512, "feed": "mdb-2825"}, {"name": "Club Parayas", "lat": 43.41999993, "lng": -3.81716343, "feed": "mdb-2825"}, {"name": "Avenida Parayas.116", "lat": 43.41993862, "lng": -3.82289645, "feed": "mdb-2825"}, {"name": "Avenida Parayas.70", "lat": 43.418045, "lng": -3.83187527, "feed": "mdb-2825"}, {"name": "Avenida Parayas.44", "lat": 43.417672, "lng": -3.835466, "feed": "mdb-2825"}, {"name": "Calle La Mies 1", "lat": 43.4171678, "lng": -3.83479564, "feed": "mdb-2825"}, {"name": "Avenida Concordia(V)", "lat": 43.41800088, "lng": -3.84330062, "feed": "mdb-2825"}, {"name": "Salida S-10 Aerop", "lat": 43.42402209, "lng": -3.83498299, "feed": "mdb-2825"}, {"name": "La Lonja", "lat": 43.45313064, "lng": -3.82169668, "feed": "mdb-2825"}, {"name": "Marques De La Hermida 36", "lat": 43.45399008, "lng": -3.81854655, "feed": "mdb-2825"}, {"name": "Marques De La Hermida 1", "lat": 43.45566999, "lng": -3.81238439, "feed": "mdb-2825"}, {"name": "Castilla.51", "lat": 43.45572499, "lng": -3.81753757, "feed": "mdb-2825"}, {"name": "Castilla.71", "lat": 43.45458137, "lng": -3.820694, "feed": "mdb-2825"}, {"name": "Castilla.93", "lat": 43.45324065, "lng": -3.82488576, "feed": "mdb-2825"}, {"name": "Gasolinera Parayas", "lat": 43.45002177, "lng": -3.83031167, "feed": "mdb-2825"}, {"name": "La Jaya", "lat": 43.41754251, "lng": -3.91486878, "feed": "mdb-2825"}, {"name": "Escobedo Urbaniza.", "lat": 43.40733814, "lng": -3.90473373, "feed": "mdb-2825"}, {"name": "La Maza 2", "lat": 43.40571036, "lng": -3.90376371, "feed": "mdb-2825"}, {"name": "La Maza", "lat": 43.40774952, "lng": -3.90018158, "feed": "mdb-2825"}, {"name": "La Maza 36", "lat": 43.40894299, "lng": -3.89787371, "feed": "mdb-2825"}, {"name": "La Ria", "lat": 43.41395694, "lng": -3.89779407, "feed": "mdb-2825"}, {"name": "Trescaños", "lat": 43.42578107, "lng": -3.8878945, "feed": "mdb-2825"}, {"name": "Geriatrico", "lat": 43.42634372, "lng": -3.88605874, "feed": "mdb-2825"}, {"name": "Barrio De Abajo 11", "lat": 43.42704445, "lng": -3.88262845, "feed": "mdb-2825"}, {"name": "Las Tiendas 10", "lat": 43.4302553, "lng": -3.88053715, "feed": "mdb-2825"}, {"name": "Las Tiendas 2", "lat": 43.43142013, "lng": -3.87748042, "feed": "mdb-2825"}, {"name": "Col.Mateo Escagedo", "lat": 43.43328911, "lng": -3.871917, "feed": "mdb-2825"}, {"name": "Bellavista", "lat": 43.43448946, "lng": -3.87025542, "feed": "mdb-2825"}, {"name": "Poligono Elegarcu", "lat": 43.43771292, "lng": -3.86807188, "feed": "mdb-2825"}, {"name": "Mercasantander", "lat": 43.4395991, "lng": -3.86445766, "feed": "mdb-2825"}, {"name": "Primero De Mayo 34", "lat": 43.44341786, "lng": -3.85726131, "feed": "mdb-2825"}, {"name": "Carrefour Peñacastil", "lat": 43.44691462, "lng": -3.85481879, "feed": "mdb-2825"}, {"name": "Carrefour/El Empalme", "lat": 43.44821123, "lng": -3.85307586, "feed": "mdb-2825"}, {"name": "Garcia Del Rio Bsh", "lat": 43.44941329, "lng": -3.84599868, "feed": "mdb-2825"}, {"name": "Avda Garcia Del Rio", "lat": 43.4502733, "lng": -3.8399895, "feed": "mdb-2825"}, {"name": "Valdecilla Sur", "lat": 43.45459856, "lng": -3.82770127, "feed": "mdb-2825"}, {"name": "Obras Publicas", "lat": 43.44035368, "lng": -3.86019428, "feed": "mdb-2825"}, {"name": "Plaza Vela", "lat": 43.40460971, "lng": -3.90450397, "feed": "mdb-2825"}, {"name": "Correos Astillero", "lat": 43.39983239, "lng": -3.82331872, "feed": "mdb-2825"}, {"name": "Vista Alegre_", "lat": 43.40092215, "lng": -3.82566555, "feed": "mdb-2825"}, {"name": "La Ventilla_", "lat": 43.40271093, "lng": -3.82894345, "feed": "mdb-2825"}, {"name": "Crucero Boo", "lat": 43.40498213, "lng": -3.83644576, "feed": "mdb-2825"}, {"name": "San Camilo", "lat": 43.40782343, "lng": -3.84234321, "feed": "mdb-2825"}, {"name": "Estacion Boo", "lat": 43.41050888, "lng": -3.84215872, "feed": "mdb-2825"}, {"name": "Avda Bilbao 95", "lat": 43.41597089, "lng": -3.8448562, "feed": "mdb-2825"}, {"name": "Avda Bilbao 47", "lat": 43.42099344, "lng": -3.84766427, "feed": "mdb-2825"}, {"name": "Avda Bilbao 29", "lat": 43.42229233, "lng": -3.85080408, "feed": "mdb-2825"}, {"name": "Avda Bilbao 1", "lat": 43.42555877, "lng": -3.85598304, "feed": "mdb-2825"}, {"name": "Avda Santander 27", "lat": 43.4284946, "lng": -3.85664538, "feed": "mdb-2825"}, {"name": "Avda Santander 53", "lat": 43.43148544, "lng": -3.85685165, "feed": "mdb-2825"}, {"name": "Las Presas", "lat": 43.43423392, "lng": -3.86047675, "feed": "mdb-2825"}, {"name": "Carrefour/El Empalme", "lat": 43.44874522, "lng": -3.85132203, "feed": "mdb-2825"}, {"name": "Valdecilla Sur", "lat": 43.45362396, "lng": -3.8294889, "feed": "mdb-2825"}, {"name": "La Zarzosa", "lat": 43.42681927, "lng": -3.85669007, "feed": "mdb-2825"}, {"name": "Ayto Muriedas", "lat": 43.42441342, "lng": -3.85408369, "feed": "mdb-2825"}, {"name": "Avda Bilbao 95", "lat": 43.41583968, "lng": -3.84498225, "feed": "mdb-2825"}, {"name": "La Vegana", "lat": 43.41278582, "lng": -3.84382889, "feed": "mdb-2825"}, {"name": "San Camilo", "lat": 43.40722354, "lng": -3.84203152, "feed": "mdb-2825"}, {"name": "Avda.Parayas", "lat": 43.44284605, "lng": -3.83749885, "feed": "mdb-2825"}, {"name": "Corte Ingles", "lat": 43.439402, "lng": -3.84093832, "feed": "mdb-2825"}, {"name": "Valle Real", "lat": 43.42529979, "lng": -3.83655977, "feed": "mdb-2825"}, {"name": "Gutierrez Solana.1", "lat": 43.42248829, "lng": -3.839534, "feed": "mdb-2825"}, {"name": "Gutierrez Solana.21", "lat": 43.42394589, "lng": -3.84171066, "feed": "mdb-2825"}, {"name": "Complejo Alday", "lat": 43.42299134, "lng": -3.84341579, "feed": "mdb-2825"}, {"name": "Barrio Buenos Aires", "lat": 43.42222358, "lng": -3.8452206, "feed": "mdb-2825"}, {"name": "Rufino R.Ceballos.16", "lat": 43.42194455, "lng": -3.84485907, "feed": "mdb-2825"}, {"name": "Barrio Tocos 9", "lat": 43.40134442, "lng": -3.90509297, "feed": "mdb-2825"}, {"name": "La Fuente 5", "lat": 43.39850427, "lng": -3.89851427, "feed": "mdb-2825"}, {"name": "El Centro", "lat": 43.39809461, "lng": -3.89331812, "feed": "mdb-2825"}, {"name": "Las Portillonas", "lat": 43.42119741, "lng": -3.85829722, "feed": "mdb-2825"}, {"name": "Av.Burgos 82", "lat": 43.41202149, "lng": -3.85941334, "feed": "mdb-2825"}, {"name": "Camargo - Crucero", "lat": 43.4082669, "lng": -3.85996739, "feed": "mdb-2825"}, {"name": "Barrio Carmen Ermita", "lat": 43.40700525, "lng": -3.86309001, "feed": "mdb-2825"}, {"name": "Barrio Calva 23", "lat": 43.40626269, "lng": -3.86601897, "feed": "mdb-2825"}, {"name": "Barrio Calva 16", "lat": 43.40465497, "lng": -3.86972945, "feed": "mdb-2825"}, {"name": "Barrio Ladredo 38", "lat": 43.40256998, "lng": -3.88021286, "feed": "mdb-2825"}, {"name": "Barrio Barros 6", "lat": 43.40204171, "lng": -3.88644377, "feed": "mdb-2825"}, {"name": "Avda Burgos 14", "lat": 43.42528317, "lng": -3.85688087, "feed": "mdb-2825"}, {"name": "Ontaneda", "lat": 43.1954973, "lng": -3.92099771, "feed": "mdb-2825"}, {"name": "Vejoris", "lat": 43.20551203, "lng": -3.92039496, "feed": "mdb-2825"}, {"name": "San Martin De Toranzo", "lat": 43.2186024, "lng": -3.9307357, "feed": "mdb-2825"}, {"name": "Acereda", "lat": 43.22799662, "lng": -3.93826207, "feed": "mdb-2825"}, {"name": "Santiurde De Toranzo", "lat": 43.23830814, "lng": -3.94112228, "feed": "mdb-2825"}, {"name": "Villasevil", "lat": 43.25806143, "lng": -3.93365091, "feed": "mdb-2825"}, {"name": "Iruz", "lat": 43.26818961, "lng": -3.93581726, "feed": "mdb-2825"}, {"name": "Penilla De Toranzo", "lat": 43.28582238, "lng": -3.94950752, "feed": "mdb-2825"}, {"name": "Corrobarceno", "lat": 43.29045876, "lng": -3.95672908, "feed": "mdb-2825"}, {"name": "Santa Ana", "lat": 43.29013389, "lng": -3.96000067, "feed": "mdb-2825"}, {"name": "Puente Viesgo", "lat": 43.2988692, "lng": -3.96710019, "feed": "mdb-2825"}, {"name": "Vargas", "lat": 43.32219088, "lng": -3.96257955, "feed": "mdb-2825"}, {"name": "Carandia", "lat": 43.33753698, "lng": -3.97448275, "feed": "mdb-2825"}, {"name": "Renedo De Pielagos", "lat": 43.35168789, "lng": -3.95070271, "feed": "mdb-2825"}, {"name": "La Pasiega", "lat": 43.36317799, "lng": -3.92028724, "feed": "mdb-2825"}, {"name": "Parbayon", "lat": 43.37619673, "lng": -3.8911489, "feed": "mdb-2825"}, {"name": "Cianca", "lat": 43.38374946, "lng": -3.87477147, "feed": "mdb-2825"}, {"name": "Revilla De Camargo", "lat": 43.40797813, "lng": -3.85928901, "feed": "mdb-2825"}, {"name": "Muriedas", "lat": 43.42121002, "lng": -3.85800272, "feed": "mdb-2825"}, {"name": "San Vicente De Toranzo", "lat": 43.21128115, "lng": -3.9386683, "feed": "mdb-2825"}, {"name": "Villegar De Toranzo", "lat": 43.22156115, "lng": -3.94508944, "feed": "mdb-2825"}, {"name": "Borleña", "lat": 43.23613663, "lng": -3.94779609, "feed": "mdb-2825"}, {"name": "Prases", "lat": 43.2464493, "lng": -3.94685186, "feed": "mdb-2825"}, {"name": "Cillero", "lat": 43.25436872, "lng": -3.94865152, "feed": "mdb-2825"}, {"name": "Corvera De Toranzo", "lat": 43.26692222, "lng": -3.9471137, "feed": "mdb-2825"}, {"name": "Soto-Aes", "lat": 43.2760271, "lng": -3.94683639, "feed": "mdb-2825"}, {"name": "Luena", "lat": 43.10166802, "lng": -3.90257998, "feed": "mdb-2825"}, {"name": "Cianca", "lat": 43.38408293, "lng": -3.87430566, "feed": "mdb-2825"}, {"name": "La Pasiega", "lat": 43.36322268, "lng": -3.92058518, "feed": "mdb-2825"}, {"name": "Carandia", "lat": 43.33773981, "lng": -3.97457786, "feed": "mdb-2825"}, {"name": "Vargas", "lat": 43.32205566, "lng": -3.962642, "feed": "mdb-2825"}, {"name": "Puente Viesgo", "lat": 43.29859418, "lng": -3.96707039, "feed": "mdb-2825"}, {"name": "Santa Ana", "lat": 43.29025135, "lng": -3.96040575, "feed": "mdb-2825"}, {"name": "Soto-Aes", "lat": 43.27656396, "lng": -3.94712057, "feed": "mdb-2825"}, {"name": "Bilbao", "lat": 43.26131984, "lng": -2.95019406, "feed": "mdb-2825"}, {"name": "Logroño", "lat": 42.45754027, "lng": -2.44191977, "feed": "mdb-2825"}, {"name": "Zaragoza", "lat": 41.65881132, "lng": -0.91124927, "feed": "mdb-2825"}, {"name": "Barcelona/Sants", "lat": 41.37971498, "lng": 2.1389351, "feed": "mdb-2825"}, {"name": "Barcelona (Nord)", "lat": 41.394067, "lng": 2.18294399, "feed": "mdb-2825"}, {"name": "Vitoria-Gasteiz", "lat": 42.85911779, "lng": -2.68433019, "feed": "mdb-2825"}, {"name": "Miranda De Ebro", "lat": 42.69042412, "lng": -2.94004584, "feed": "mdb-2825"}, {"name": "Haro", "lat": 42.57366907, "lng": -2.85340316, "feed": "mdb-2825"}, {"name": "Lleida", "lat": 41.62083224, "lng": 0.63185786, "feed": "mdb-2825"}, {"name": "Port des Botafoc", "lat": 38.90715, "lng": 1.45305191, "feed": "mdb-2825"}, {"name": "Talamanca - Marina Botafoc", "lat": 38.91342847, "lng": 1.45031432, "feed": "mdb-2825"}, {"name": "CS Vila", "lat": 38.91751881, "lng": 1.44595124, "feed": "mdb-2825"}, {"name": "D. Pacha", "lat": 38.91820923, "lng": 1.44235994, "feed": "mdb-2825"}, {"name": "Es Gorg  E-10 (Ikea)", "lat": 38.91721343, "lng": 1.43589411, "feed": "mdb-2825"}, {"name": "Av. d'Isidor Macabich. 4", "lat": 38.91061811, "lng": 1.43084292, "feed": "mdb-2825"}, {"name": "Parc de la Pau", "lat": 38.90973289, "lng": 1.42509501, "feed": "mdb-2825"}, {"name": "Superficie CETIS Estación", "lat": 38.91151479, "lng": 1.42422526, "feed": "mdb-2825"}, {"name": "Policia Nacional", "lat": 38.90853885, "lng": 1.42155012, "feed": "mdb-2825"}, {"name": "Bar Astro", "lat": 38.90549071, "lng": 1.41544697, "feed": "mdb-2825"}, {"name": "SEAT", "lat": 38.90468628, "lng": 1.41173191, "feed": "mdb-2825"}, {"name": "C. Felip Curtois i Valls. 219", "lat": 38.90293131, "lng": 1.40961483, "feed": "mdb-2825"}, {"name": "Auditori Cas Serres", "lat": 38.90153214, "lng": 1.41105181, "feed": "mdb-2825"}, {"name": "SEAT", "lat": 38.90464388, "lng": 1.41187916, "feed": "mdb-2825"}, {"name": "Bar Astro", "lat": 38.9054529, "lng": 1.41591679, "feed": "mdb-2825"}, {"name": "ses Figueretes", "lat": 38.90661829, "lng": 1.42157189, "feed": "mdb-2825"}, {"name": "Consell Insular d'Eivissa", "lat": 38.90763873, "lng": 1.42669127, "feed": "mdb-2825"}, {"name": "Vara de Rey", "lat": 38.90863396, "lng": 1.43170293, "feed": "mdb-2825"}, {"name": "Es Gorg  E-10", "lat": 38.91662099, "lng": 1.43507478, "feed": "mdb-2825"}, {"name": "Casa del Mar", "lat": 38.91672527, "lng": 1.4401913, "feed": "mdb-2825"}, {"name": "passeig Joan Carles I. 3", "lat": 38.91454058, "lng": 1.44665025, "feed": "mdb-2825"}, {"name": "CETIS", "lat": 38.91189982, "lng": 1.42478389, "feed": "mdb-2825"}, {"name": "Hospital Can Misses", "lat": 38.91467293, "lng": 1.42091012, "feed": "mdb-2825"}, {"name": "CS Can Misses", "lat": 38.91603485, "lng": 1.41745633, "feed": "mdb-2825"}, {"name": "pou de cas Mut", "lat": 38.91035111, "lng": 1.40770287, "feed": "mdb-2825"}, {"name": "Can Pereira", "lat": 38.91167464, "lng": 1.40594332, "feed": "mdb-2825"}, {"name": "C. del Llobarro. 5", "lat": 38.91104611, "lng": 1.40330886, "feed": "mdb-2825"}, {"name": "Can Fita", "lat": 38.90944011, "lng": 1.40219503, "feed": "mdb-2825"}, {"name": "Can Cifre", "lat": 38.90470576, "lng": 1.402022, "feed": "mdb-2825"}, {"name": "Riu Minyo. 33", "lat": 38.90483868, "lng": 1.39862493, "feed": "mdb-2825"}, {"name": "Ca na Perica", "lat": 38.90459518, "lng": 1.39553325, "feed": "mdb-2825"}, {"name": "Bar sa Carroca", "lat": 38.90391278, "lng": 1.39211384, "feed": "mdb-2825"}, {"name": "Club de Campo", "lat": 38.90261675, "lng": 1.38851795, "feed": "mdb-2825"}, {"name": "es Torrent", "lat": 38.90168398, "lng": 1.38561478, "feed": "mdb-2825"}, {"name": "Can Noguera", "lat": 38.89987515, "lng": 1.38267321, "feed": "mdb-2825"}, {"name": "Can Guerxo", "lat": 38.89515398, "lng": 1.38651375, "feed": "mdb-2825"}, {"name": "Sa Compra", "lat": 38.89336005, "lng": 1.39017208, "feed": "mdb-2825"}, {"name": "Sant Jordi. pl. de s'Església", "lat": 38.89136902, "lng": 1.3954708, "feed": "mdb-2825"}, {"name": "encreuament platja d'en Bossa", "lat": 38.89442804, "lng": 1.39982527, "feed": "mdb-2825"}, {"name": "H. Garbi", "lat": 38.89246738, "lng": 1.40869867, "feed": "mdb-2825"}, {"name": "H. Garbi", "lat": 38.89099889, "lng": 1.40742613, "feed": "mdb-2825"}, {"name": "H. Algarb", "lat": 38.89289481, "lng": 1.40929913, "feed": "mdb-2825"}, {"name": "encreuament platja d'en Bossa", "lat": 38.89443205, "lng": 1.39967573, "feed": "mdb-2825"}, {"name": "Sant Jordi - Plaça", "lat": 38.89137131, "lng": 1.39704414, "feed": "mdb-2825"}, {"name": "C. de Mont Blanc", "lat": 38.89287934, "lng": 1.39503993, "feed": "mdb-2825"}, {"name": "Can Sord", "lat": 38.89685853, "lng": 1.39177006, "feed": "mdb-2825"}, {"name": "Can Bellotera", "lat": 38.90007397, "lng": 1.38930692, "feed": "mdb-2825"}, {"name": "Club de Campo", "lat": 38.90266316, "lng": 1.38848701, "feed": "mdb-2825"}, {"name": "Ca na Perica", "lat": 38.90451496, "lng": 1.39550517, "feed": "mdb-2825"}, {"name": "Hospital Can Misses", "lat": 38.91490555, "lng": 1.41978082, "feed": "mdb-2825"}, {"name": "AV San Pablo (C. des Jondal)", "lat": 38.90862823, "lng": 1.41431652, "feed": "mdb-2825"}, {"name": "CEIP Can Cantó", "lat": 38.90803407, "lng": 1.41887268, "feed": "mdb-2825"}, {"name": "Cubells-Campanitx (Multicine)", "lat": 38.91147755, "lng": 1.42161944, "feed": "mdb-2825"}, {"name": "Av. de Sant Jordi", "lat": 38.90563567, "lng": 1.41992807, "feed": "mdb-2825"}, {"name": "es Viver", "lat": 38.90343379, "lng": 1.41956081, "feed": "mdb-2825"}, {"name": "C. del País Basc. 15", "lat": 38.90570099, "lng": 1.42346093, "feed": "mdb-2825"}, {"name": "Port", "lat": 38.91055967, "lng": 1.43402799, "feed": "mdb-2825"}, {"name": "cementeri Nou", "lat": 38.91652015, "lng": 1.3943902, "feed": "mdb-2825"}, {"name": "Can Pereira", "lat": 38.91153484, "lng": 1.40634725, "feed": "mdb-2825"}, {"name": "Aparcament des Gorg", "lat": 38.91814276, "lng": 1.43503582, "feed": "mdb-2825"}, {"name": "sa Carrossa", "lat": 38.90793208, "lng": 1.43757918, "feed": "mdb-2825"}, {"name": "Ajuntament", "lat": 38.90725313, "lng": 1.43753621, "feed": "mdb-2825"}, {"name": "Dalt Vila", "lat": 38.90761581, "lng": 1.43564602, "feed": "mdb-2825"}, {"name": "Ajuntament", "lat": 38.90724969, "lng": 1.43766283, "feed": "mdb-2825"}, {"name": "Museu d'Art Contemporani", "lat": 38.90864198, "lng": 1.43599094, "feed": "mdb-2825"}, {"name": "Piscines Can Misses", "lat": 38.91375333, "lng": 1.41715897, "feed": "mdb-2825"}, {"name": "C. Campanitx", "lat": 38.91218171, "lng": 1.42126536, "feed": "mdb-2825"}, {"name": "C. de Fra Vicent Nicolau. 27", "lat": 38.91245788, "lng": 1.42847316, "feed": "mdb-2825"}, {"name": "Aparcament Cas Dominguets", "lat": 38.91745006, "lng": 1.42898081, "feed": "mdb-2825"}, {"name": "Escoleta Can Cantó", "lat": 38.90746684, "lng": 1.41152393, "feed": "mdb-2825"}, {"name": "Església de San Pablo", "lat": 38.90610893, "lng": 1.41175082, "feed": "mdb-2825"}, {"name": "Grial", "lat": 38.91779326, "lng": 1.43901903, "feed": "mdb-2825"}, {"name": "Comandància Eivissa", "lat": 38.91652702, "lng": 1.43820199, "feed": "mdb-2825"}, {"name": "Sortida Port", "lat": 38.91035856, "lng": 1.43567295, "feed": "mdb-2825"}, {"name": "Pl. de sa Riba", "lat": 38.90919144, "lng": 1.44072415, "feed": "mdb-2825"}, {"name": "E.M. Formentera", "lat": 38.91252549, "lng": 1.4347631, "feed": "mdb-2825"}, {"name": "Grial", "lat": 38.9177182, "lng": 1.43943385, "feed": "mdb-2825"}, {"name": "Ibiza Gran Hotel", "lat": 38.91800182, "lng": 1.44268481, "feed": "mdb-2825"}, {"name": "CS Vila", "lat": 38.91710686, "lng": 1.44627783, "feed": "mdb-2825"}, {"name": "Talamanca", "lat": 38.91402091, "lng": 1.4494503, "feed": "mdb-2825"}, {"name": "C. Ses Feixes", "lat": 38.91852951, "lng": 1.45659221, "feed": "mdb-2825"}, {"name": "H. OD Talamanca", "lat": 38.91893746, "lng": 1.46200896, "feed": "mdb-2825"}, {"name": "Clap House", "lat": 38.91723806, "lng": 1.46916807, "feed": "mdb-2825"}, {"name": "Cap Martinet", "lat": 38.91416529, "lng": 1.46947116, "feed": "mdb-2825"}, {"name": "Clap House", "lat": 38.91746496, "lng": 1.46911421, "feed": "mdb-2825"}, {"name": "H. OD Talamanca", "lat": 38.9195975, "lng": 1.4610779, "feed": "mdb-2825"}, {"name": "ses Torres Baixes", "lat": 38.92100297, "lng": 1.45786475, "feed": "mdb-2825"}, {"name": "ses Pitreres", "lat": 38.92452609, "lng": 1.45430497, "feed": "mdb-2825"}, {"name": "Can Rimbau", "lat": 38.92843309, "lng": 1.45267089, "feed": "mdb-2825"}, {"name": "Centre Cultural Jesús", "lat": 38.93180838, "lng": 1.44756297, "feed": "mdb-2825"}, {"name": "El Vivero de Jesús", "lat": 38.92760516, "lng": 1.44465177, "feed": "mdb-2825"}, {"name": "Muebles la Fábrica", "lat": 38.9260599, "lng": 1.44054309, "feed": "mdb-2825"}, {"name": "Can Cisterna", "lat": 38.92789451, "lng": 1.43519281, "feed": "mdb-2825"}, {"name": "Ciudad Jardín", "lat": 38.92861586, "lng": 1.43256294, "feed": "mdb-2825"}, {"name": "Marí Mayans", "lat": 38.92872243, "lng": 1.42974513, "feed": "mdb-2825"}, {"name": "Fusteria", "lat": 38.92704366, "lng": 1.42981217, "feed": "mdb-2825"}, {"name": "es Raspallar", "lat": 38.92315901, "lng": 1.4294449, "feed": "mdb-2825"}, {"name": "sa Blanca Dona", "lat": 38.92158108, "lng": 1.42615383, "feed": "mdb-2825"}, {"name": "es Raspallar", "lat": 38.92369415, "lng": 1.4295933, "feed": "mdb-2825"}, {"name": "Marí Mayans", "lat": 38.92895104, "lng": 1.42981675, "feed": "mdb-2825"}, {"name": "Can Cisterna", "lat": 38.92785268, "lng": 1.43498082, "feed": "mdb-2825"}, {"name": "El Vivero de Jesús", "lat": 38.92709924, "lng": 1.44375624, "feed": "mdb-2825"}, {"name": "Jesús", "lat": 38.93117927, "lng": 1.44994991, "feed": "mdb-2825"}, {"name": "ses Torres Baixes", "lat": 38.92097318, "lng": 1.45772495, "feed": "mdb-2825"}, {"name": "C. Ses Feixes", "lat": 38.91894147, "lng": 1.45691823, "feed": "mdb-2825"}, {"name": "CS es Viver", "lat": 38.90470862, "lng": 1.41635511, "feed": "mdb-2825"}, {"name": "CEIP Cas Serres", "lat": 38.9034464, "lng": 1.40997178, "feed": "mdb-2825"}, {"name": "parc Marià Villangómez", "lat": 38.90084058, "lng": 1.41157836, "feed": "mdb-2825"}, {"name": "Malacosta", "lat": 38.90024414, "lng": 1.41791699, "feed": "mdb-2825"}, {"name": "H. Goleta", "lat": 38.89818435, "lng": 1.41602566, "feed": "mdb-2825"}, {"name": "H. Mare Nostrum", "lat": 38.8963698, "lng": 1.41264406, "feed": "mdb-2825"}, {"name": "Bora-Bora - es Daus", "lat": 38.8877485, "lng": 1.40642976, "feed": "mdb-2825"}, {"name": "D. Hï Ibiza", "lat": 38.88508253, "lng": 1.40396891, "feed": "mdb-2825"}, {"name": "D. Ushuaïa & Hard Rock Hotel", "lat": 38.88242343, "lng": 1.40213487, "feed": "mdb-2825"}, {"name": "Grand Palladium Palace", "lat": 38.87795665, "lng": 1.40127314, "feed": "mdb-2825"}, {"name": "es Viver", "lat": 38.90284078, "lng": 1.41940324, "feed": "mdb-2825"}, {"name": "H. Algarb", "lat": 38.89334114, "lng": 1.40954207, "feed": "mdb-2825"}, {"name": "Bora-Bora - es Daus", "lat": 38.88726034, "lng": 1.40631517, "feed": "mdb-2825"}, {"name": "Malacosta", "lat": 38.90049108, "lng": 1.4181731, "feed": "mdb-2825"}, {"name": "Av. d'Isidor Macabich. 28", "lat": 38.91023652, "lng": 1.42751575, "feed": "mdb-2825"}, {"name": "Renault", "lat": 38.90407608, "lng": 1.40927392, "feed": "mdb-2825"}, {"name": "Cas Tabaquet", "lat": 38.90354896, "lng": 1.40599087, "feed": "mdb-2825"}, {"name": "Can Cendón", "lat": 38.90275598, "lng": 1.40200022, "feed": "mdb-2825"}, {"name": "IES Algarb", "lat": 38.89913604, "lng": 1.39723665, "feed": "mdb-2825"}, {"name": "Residència Can Raspalls", "lat": 38.89999776, "lng": 1.4012972, "feed": "mdb-2825"}, {"name": "Can Raspalls", "lat": 38.89661044, "lng": 1.40152008, "feed": "mdb-2825"}, {"name": "ses Campanes", "lat": 38.88558215, "lng": 1.39152426, "feed": "mdb-2825"}, {"name": "Moto Luis", "lat": 38.88384608, "lng": 1.38860619, "feed": "mdb-2825"}, {"name": "Grupauto", "lat": 38.88227446, "lng": 1.37933688, "feed": "mdb-2825"}, {"name": "Citubo", "lat": 38.88169463, "lng": 1.37552212, "feed": "mdb-2825"}, {"name": "La Ponderosa", "lat": 38.87978725, "lng": 1.37130286, "feed": "mdb-2825"}, {"name": "Aeroport", "lat": 38.87590775, "lng": 1.3658632, "feed": "mdb-2825"}, {"name": "Aeroport", "lat": 38.87707888, "lng": 1.36894113, "feed": "mdb-2825"}, {"name": "La Ponderosa", "lat": 38.87982163, "lng": 1.37171195, "feed": "mdb-2825"}, {"name": "Autos Mari", "lat": 38.88217534, "lng": 1.37888195, "feed": "mdb-2825"}, {"name": "Can Fornís", "lat": 38.88298034, "lng": 1.3876419, "feed": "mdb-2825"}, {"name": "Maripol Royal", "lat": 38.88538734, "lng": 1.3918921, "feed": "mdb-2825"}, {"name": "Sant Jordi - Plaça", "lat": 38.89027009, "lng": 1.39657317, "feed": "mdb-2825"}, {"name": "Can Raspalls", "lat": 38.89683905, "lng": 1.4018249, "feed": "mdb-2825"}, {"name": "IES Algarb", "lat": 38.8991813, "lng": 1.39756725, "feed": "mdb-2825"}, {"name": "C. de Jacint Aquenza. 22", "lat": 38.90359479, "lng": 1.41433371, "feed": "mdb-2825"}, {"name": "C. de Jacint Aquenza. 1", "lat": 38.90185758, "lng": 1.41579533, "feed": "mdb-2825"}, {"name": "Recinte Firal", "lat": 38.91850659, "lng": 1.42672221, "feed": "mdb-2825"}, {"name": "L'església des Puig d'en Valls", "lat": 38.92774955, "lng": 1.43327684, "feed": "mdb-2825"}, {"name": "C. Es Gorg", "lat": 38.92328621, "lng": 1.4336613, "feed": "mdb-2825"}, {"name": "s'Olivera - zona comercial", "lat": 38.92182173, "lng": 1.43423082, "feed": "mdb-2825"}, {"name": "Recinte Firal", "lat": 38.91679001, "lng": 1.42735532, "feed": "mdb-2825"}, {"name": "Isla Blanca", "lat": 38.87617303, "lng": 1.39146181, "feed": "mdb-2825"}, {"name": "Sant Francesc", "lat": 38.86847878, "lng": 1.38914477, "feed": "mdb-2825"}, {"name": "sa Casilla. ses Salines", "lat": 38.86214473, "lng": 1.38801719, "feed": "mdb-2825"}, {"name": "Can Teixidor", "lat": 38.85423505, "lng": 1.38786421, "feed": "mdb-2825"}, {"name": "ses Salines", "lat": 38.8434199, "lng": 1.38497593, "feed": "mdb-2825"}, {"name": "Can Teixidor", "lat": 38.85434105, "lng": 1.38791692, "feed": "mdb-2825"}, {"name": "sa Casilla. ses Salines", "lat": 38.86225532, "lng": 1.3881971, "feed": "mdb-2825"}, {"name": "Cala Llonga", "lat": 38.95275514, "lng": 1.5177778, "feed": "mdb-2825"}, {"name": "Bar Madison", "lat": 38.95506989, "lng": 1.51773999, "feed": "mdb-2825"}, {"name": "encreuament Cala Llonga", "lat": 38.95738235, "lng": 1.51170502, "feed": "mdb-2825"}, {"name": "sa Gravada", "lat": 38.95572822, "lng": 1.50282303, "feed": "mdb-2825"}, {"name": "pont de sa Vinya", "lat": 38.9520951, "lng": 1.49409288, "feed": "mdb-2825"}, {"name": "Can Porxo", "lat": 38.94948929, "lng": 1.48878385, "feed": "mdb-2825"}, {"name": "Roca Llisa", "lat": 38.94408916, "lng": 1.48846586, "feed": "mdb-2825"}, {"name": "can Fornet", "lat": 38.94325207, "lng": 1.4624318, "feed": "mdb-2825"}, {"name": "es Pi", "lat": 38.94037181, "lng": 1.45745509, "feed": "mdb-2825"}, {"name": "Ca Nostra", "lat": 38.93664987, "lng": 1.45305821, "feed": "mdb-2825"}, {"name": "Ibiza Gran Hotel", "lat": 38.91794624, "lng": 1.44341419, "feed": "mdb-2825"}, {"name": "Jesús", "lat": 38.93121365, "lng": 1.45001294, "feed": "mdb-2825"}, {"name": "Ca Nostra", "lat": 38.93732195, "lng": 1.45385004, "feed": "mdb-2825"}, {"name": "Roca Llisa", "lat": 38.94399405, "lng": 1.4890709, "feed": "mdb-2825"}, {"name": "Can Porxo", "lat": 38.94908707, "lng": 1.48847101, "feed": "mdb-2825"}, {"name": "pont de sa Vinya", "lat": 38.95193123, "lng": 1.4934483, "feed": "mdb-2825"}, {"name": "encreuament Cala Llonga", "lat": 38.95734797, "lng": 1.51106904, "feed": "mdb-2825"}, {"name": "Bar Madison", "lat": 38.95517417, "lng": 1.51759675, "feed": "mdb-2825"}, {"name": "Can Fita", "lat": 38.92253907, "lng": 1.44032995, "feed": "mdb-2825"}, {"name": "Burgos", "lat": 42.33764198, "lng": -3.70096587, "feed": "mdb-2825"}, {"name": "Leon", "lat": 42.59317657, "lng": -5.57898115, "feed": "mdb-2825"}, {"name": "Mieres", "lat": 43.24511029, "lng": -5.77718845, "feed": "mdb-2825"}, {"name": "Oviedo", "lat": 43.36951375, "lng": -5.85075165, "feed": "mdb-2825"}, {"name": "Gijón/Xixón", "lat": 43.53889784, "lng": -5.66724587, "feed": "mdb-2825"}, {"name": "Aeropuerto Santander-S.Ballest", "lat": 43.42357347, "lng": -3.82616861, "feed": "mdb-2825"}, {"name": "Zamora", "lat": 41.51393608, "lng": -5.7390478, "feed": "mdb-2825"}, {"name": "Toro", "lat": 41.52502911, "lng": -5.38819996, "feed": "mdb-2825"}, {"name": "Tordesillas", "lat": 41.50285106, "lng": -5.00483676, "feed": "mdb-2825"}, {"name": "Valladolid", "lat": 41.64140429, "lng": -4.73218964, "feed": "mdb-2825"}, {"name": "Santiago De Compostela", "lat": 42.87000972, "lng": -8.54313992, "feed": "mdb-2825"}, {"name": "A Coruña/La Coruña E.A.", "lat": 43.35346807, "lng": -8.40472076, "feed": "mdb-2825"}, {"name": "Lugo", "lat": 43.00839393, "lng": -7.55369624, "feed": "mdb-2825"}, {"name": "Baralla", "lat": 42.89388888, "lng": -7.25035691, "feed": "mdb-2825"}, {"name": "Becerrea", "lat": 42.8546281, "lng": -7.16328623, "feed": "mdb-2825"}, {"name": "Pedrafita Do Cebreiro", "lat": 42.72667344, "lng": -7.02181951, "feed": "mdb-2825"}, {"name": "Villafranca Del Bierzo", "lat": 42.60165921, "lng": -6.81168438, "feed": "mdb-2825"}, {"name": "Ponferrada", "lat": 42.55305004, "lng": -6.60138079, "feed": "mdb-2825"}, {"name": "Bembibre", "lat": 42.61873851, "lng": -6.41264678, "feed": "mdb-2825"}, {"name": "Astorga", "lat": 42.45927519, "lng": -6.05571985, "feed": "mdb-2825"}, {"name": "Llanes", "lat": 43.41688533, "lng": -4.75457166, "feed": "mdb-2825"}, {"name": "Unquera", "lat": 43.37458328, "lng": -4.51434593, "feed": "mdb-2825"}, {"name": "San Vicente De La Barquera", "lat": 43.3820409, "lng": -4.39724539, "feed": "mdb-2825"}, {"name": "San Sebastian", "lat": 43.31625102, "lng": -1.97733751, "feed": "mdb-2825"}, {"name": "Irun", "lat": 43.34111109, "lng": -1.79766368, "feed": "mdb-2825"}, {"name": "Ribadesella", "lat": 43.45922061, "lng": -5.0620443, "feed": "mdb-2825"}, {"name": "Santurce/Santurtzi", "lat": 43.32203331, "lng": -3.0382508, "feed": "mdb-2825"}, {"name": "Baracaldo/Barakaldo", "lat": 43.29314765, "lng": -2.98901597, "feed": "mdb-2825"}, {"name": "Isla", "lat": 43.49402837, "lng": -3.55010379, "feed": "mdb-2825"}, {"name": "Cabezon De La Sal", "lat": 43.30929245, "lng": -4.237275, "feed": "mdb-2825"}, {"name": "Lleida", "lat": 41.61979748, "lng": 0.63303013, "feed": "mdb-2825"}, {"name": "Est.Autobuses S.L. El Escorial", "lat": 40.59237242, "lng": -4.14380667, "feed": "mdb-2825"}, {"name": "San Lorenzo Escorial-Juan Tole", "lat": 40.5942861, "lng": -4.14177038, "feed": "mdb-2825"}, {"name": "Jaun De Toledo-Biblioteca", "lat": 40.59709589, "lng": -4.13551884, "feed": "mdb-2825"}, {"name": "Escorial. El-Guadarram Sn", "lat": 40.59962378, "lng": -4.12942772, "feed": "mdb-2825"}, {"name": "San Lorenzo Escorial-Guadarram", "lat": 40.60259686, "lng": -4.12290632, "feed": "mdb-2825"}, {"name": "San Lorenzo Escorial-Guadarram", "lat": 40.6049563, "lng": -4.11746093, "feed": "mdb-2825"}, {"name": "Hospital El Escorial", "lat": 40.6071851, "lng": -4.11963874, "feed": "mdb-2825"}, {"name": "Ctra.M600-Urb.La Pizarra", "lat": 40.61578004, "lng": -4.11417788, "feed": "mdb-2825"}, {"name": "Crta.M600-Cºcalzada Del Campil", "lat": 40.62963932, "lng": -4.10905163, "feed": "mdb-2825"}, {"name": "Ctra.M600-Valle De Cuelgamuros", "lat": 40.65088116, "lng": -4.10062743, "feed": "mdb-2825"}, {"name": "Guadarrama-Escoriales 1", "lat": 40.67011821, "lng": -4.08665299, "feed": "mdb-2825"}, {"name": "Hospital Guadarrama-Urb.Fresn", "lat": 40.66806187, "lng": -4.08314076, "feed": "mdb-2825"}, {"name": "Ctra.Nvi-El Tomillar", "lat": 40.65708572, "lng": -4.06239166, "feed": "mdb-2825"}, {"name": "Guadarrama-Coruña 1", "lat": 40.65061645, "lng": -4.04946917, "feed": "mdb-2825"}, {"name": "Ctra.Nvi-Urb.Grandes Valles", "lat": 40.64500318, "lng": -4.0378599, "feed": "mdb-2825"}, {"name": "Av.Reina Victoria-Cabeza Líjar", "lat": 40.64027341, "lng": -4.02988719, "feed": "mdb-2825"}, {"name": "Alpedrete-Reina Victoria 12", "lat": 40.63965978, "lng": -4.02769219, "feed": "mdb-2825"}, {"name": "Alpedrete-Reina Victoria 28", "lat": 40.63826864, "lng": -4.02309421, "feed": "mdb-2825"}, {"name": "Coll.Villalba-Juan Carlos I 49", "lat": 40.63631027, "lng": -4.01634763, "feed": "mdb-2825"}, {"name": "Av.Juan Carlos I-Zoco", "lat": 40.63327359, "lng": -4.00506838, "feed": "mdb-2825"}, {"name": "Coll.Villalba-Juan Carlos I 49", "lat": 40.63621057, "lng": -4.01563831, "feed": "mdb-2825"}, {"name": "Alpedrete-Reina Victoria 28", "lat": 40.63851558, "lng": -4.02367748, "feed": "mdb-2825"}, {"name": "Alpedrete-Reina Victoria 16", "lat": 40.63964488, "lng": -4.0273255, "feed": "mdb-2825"}, {"name": "Ctra.Nvi-Cabeza Luar", "lat": 40.64065386, "lng": -4.03062631, "feed": "mdb-2825"}, {"name": "Ctra.Nvi-Urb.Garndes Valles", "lat": 40.64507022, "lng": -4.03741185, "feed": "mdb-2825"}, {"name": "Ctra.Nvi-Miravalle", "lat": 40.6498292, "lng": -4.04811871, "feed": "mdb-2825"}, {"name": "Ctra.Nvi-El Tomillar", "lat": 40.65610653, "lng": -4.05817641, "feed": "mdb-2825"}, {"name": "Hospital Guadarrama-Urb.Fresns", "lat": 40.66833402, "lng": -4.08314419, "feed": "mdb-2825"}, {"name": "Ctra.M600-Valle De Cuelgamuros", "lat": 40.64951408, "lng": -4.10228442, "feed": "mdb-2825"}, {"name": "Crta.M600-Cºcalzada Del Campil", "lat": 40.6291672, "lng": -4.10946988, "feed": "mdb-2825"}, {"name": "Ctra.M600-Urb.La Pizarra", "lat": 40.61534574, "lng": -4.11440706, "feed": "mdb-2825"}, {"name": "San Lorenzo Escorial-Guadarram", "lat": 40.60571661, "lng": -4.11709538, "feed": "mdb-2825"}, {"name": "San Lorenzo Escorial-M-600 65", "lat": 40.60302486, "lng": -4.12224054, "feed": "mdb-2825"}, {"name": "San Lorenzo Escorial-Guadarram", "lat": 40.59940663, "lng": -4.13041665, "feed": "mdb-2825"}, {"name": "San Lorenzo Escorial-Juan Tole", "lat": 40.59701854, "lng": -4.13603736, "feed": "mdb-2825"}, {"name": "Est.De Autobuses De Cebreros", "lat": 40.45708506, "lng": -4.46232766, "feed": "mdb-2825"}, {"name": "Cebreros-Ctra-V502 Sn", "lat": 40.46173174, "lng": -4.46317163, "feed": "mdb-2825"}, {"name": "Hoyo De Pinares. El-av constit", "lat": 40.49962775, "lng": -4.42518166, "feed": "mdb-2825"}, {"name": "Hoyo De Pinares. El-Pz Cyl", "lat": 40.50140907, "lng": -4.42460584, "feed": "mdb-2825"}, {"name": "Hoyo De Pinares. El-av constit", "lat": 40.49971713, "lng": -4.4252189, "feed": "mdb-2825"}, {"name": "Valdemaqueda-San Guillermo 15", "lat": 40.51208156, "lng": -4.30360288, "feed": "mdb-2825"}, {"name": "Valdemaqueda-Dos de Mayo 122", "lat": 40.51179909, "lng": -4.30059829, "feed": "mdb-2825"}, {"name": "Valdemaqueda-España 6", "lat": 40.51136364, "lng": -4.29533854, "feed": "mdb-2825"}, {"name": "Trva.Dos De Mayo-Colonia S.Ana", "lat": 40.50982238, "lng": -4.28974991, "feed": "mdb-2825"}, {"name": "Valdemaqueda-M-537 (Robledo)", "lat": 40.50723491, "lng": -4.275226, "feed": "mdb-2825"}, {"name": "Robledo De Chavela-M-537", "lat": 40.49879524, "lng": -4.23957313, "feed": "mdb-2825"}, {"name": "Robledo De Chavela-Álamos 11", "lat": 40.50126755, "lng": -4.23667969, "feed": "mdb-2825"}, {"name": "Robledo De Chavela-Antigua 40", "lat": 40.50465832, "lng": -4.23557388, "feed": "mdb-2825"}, {"name": "Robledo De Chavela-M-521 8", "lat": 40.50706646, "lng": -4.23276181, "feed": "mdb-2825"}, {"name": "Robledo De Chavela-Finca Monte", "lat": 40.50291824, "lng": -4.20583738, "feed": "mdb-2825"}, {"name": "Robledo De Chavela-M-521 57", "lat": 40.50008898, "lng": -4.2033198, "feed": "mdb-2825"}, {"name": "Fresnedillas Oliva-Rchavela 57", "lat": 40.49000664, "lng": -4.17722845, "feed": "mdb-2825"}, {"name": "Fresnedillas De La Oliva-Real", "lat": 40.48810671, "lng": -4.17005673, "feed": "mdb-2825"}, {"name": "Fresnedillas Oliva-Navalag.18", "lat": 40.48849231, "lng": -4.16660638, "feed": "mdb-2825"}, {"name": "Ctra.M521-Cºdegollados", "lat": 40.48450682, "lng": -4.15623699, "feed": "mdb-2825"}, {"name": "Ctra.M510-Solana", "lat": 40.4683156, "lng": -4.12361507, "feed": "mdb-2825"}, {"name": "Valdemorillo-Cerro Alarcón 11", "lat": 40.49827499, "lng": -4.0708806, "feed": "mdb-2825"}, {"name": "Valdemorillo-Robledo Chavela", "lat": 40.49696464, "lng": -4.06831261, "feed": "mdb-2825"}, {"name": "Valdemorillo-Eras Cerradas 9", "lat": 40.4975015, "lng": -4.06388364, "feed": "mdb-2825"}, {"name": "Valdemorillo-Eras Cerradas 33", "lat": 40.49909375, "lng": -4.06022531, "feed": "mdb-2825"}, {"name": "Valdemorillo-San Juan Sn", "lat": 40.49972171, "lng": -4.05752267, "feed": "mdb-2825"}, {"name": "Villanueva Del Pardillo-M-509", "lat": 40.48540178, "lng": -3.97298446, "feed": "mdb-2825"}, {"name": "Villanueva Del Pardillo-Madrid", "lat": 40.48792737, "lng": -3.96618918, "feed": "mdb-2825"}, {"name": "Villanueva Del Pardillo-Madrid", "lat": 40.48903261, "lng": -3.96325564, "feed": "mdb-2825"}, {"name": "Rozas De Madrid. Las-Commadrid", "lat": 40.49155362, "lng": -3.87868707, "feed": "mdb-2825"}, {"name": "Madrid - Puerta de Hierro 5400", "lat": 40.4480541, "lng": -3.73591802, "feed": "mdb-2825"}, {"name": "Intercambiador Moncloa", "lat": 40.4342779, "lng": -3.71930854, "feed": "mdb-2825"}, {"name": "Rozas De Madrid. Las-Escorial", "lat": 40.4909652, "lng": -3.87664963, "feed": "mdb-2825"}, {"name": "Villanueva Del Pardillo-Madrid", "lat": 40.48798925, "lng": -3.96634388, "feed": "mdb-2825"}, {"name": "Villanueva Del Pardillo-M-509", "lat": 40.48551637, "lng": -3.97330475, "feed": "mdb-2825"}, {"name": "Valdemorillo-San Juan 93", "lat": 40.49990678, "lng": -4.05700643, "feed": "mdb-2825"}, {"name": "Valdemorillo-Eras Cerradas 33", "lat": 40.49910865, "lng": -4.06051064, "feed": "mdb-2825"}, {"name": "Valdemorillo-Eras Cerradas 15", "lat": 40.49800341, "lng": -4.06313651, "feed": "mdb-2825"}, {"name": "Valdemorillo-Robledo Chavela", "lat": 40.49719497, "lng": -4.06972036, "feed": "mdb-2825"}, {"name": "Valdemorillo-M-510 5", "lat": 40.50083669, "lng": -4.07143064, "feed": "mdb-2825"}, {"name": "Fresnedillas Oliva-Cañada 6", "lat": 40.48681985, "lng": -4.1573153, "feed": "mdb-2825"}, {"name": "Fresnedillas Oliva-Rchavela 50", "lat": 40.48999919, "lng": -4.17707489, "feed": "mdb-2825"}, {"name": "Robledo De Chavela-M-521 57", "lat": 40.49971541, "lng": -4.20286487, "feed": "mdb-2825"}, {"name": "Robledo De Chavela-M-521 57", "lat": 40.50528227, "lng": -4.20550162, "feed": "mdb-2825"}, {"name": "Robledo De Chavela-M-521 5", "lat": 40.50691863, "lng": -4.23355822, "feed": "mdb-2825"}, {"name": "Av.Juan Carlos I-Olivar", "lat": 40.50172477, "lng": -4.23775055, "feed": "mdb-2825"}, {"name": "Ctra.Valdemaqueda-Av.Constituc", "lat": 40.49892358, "lng": -4.23930327, "feed": "mdb-2825"}, {"name": "Crta.M537-Colonia Del Rio", "lat": 40.50805653, "lng": -4.27760664, "feed": "mdb-2825"}, {"name": "Trva.Dos De Mayo-Colonia S.Ana", "lat": 40.50973931, "lng": -4.28912252, "feed": "mdb-2825"}, {"name": "Trva.Dos De Mayo-Pilas", "lat": 40.5121039, "lng": -4.30314222, "feed": "mdb-2825"}, {"name": "Fco.Quevedo-Es.Robledo Chavela", "lat": 40.5201912, "lng": -4.2462945, "feed": "mdb-2825"}, {"name": "Robledo De Chavela-M-512 6500", "lat": 40.51792172, "lng": -4.2461461, "feed": "mdb-2825"}, {"name": "Ctra.M512-Urb.La Saleta", "lat": 40.51288828, "lng": -4.23930155, "feed": "mdb-2825"}, {"name": "Crta.M512-Urb.La Suiza Español", "lat": 40.51007792, "lng": -4.24093792, "feed": "mdb-2825"}, {"name": "Ctra.M512-Almojon", "lat": 40.50982353, "lng": -4.23691976, "feed": "mdb-2825"}, {"name": "Ctra.M512-Urb.Cerrillo Carmen", "lat": 40.50767322, "lng": -4.23500379, "feed": "mdb-2825"}, {"name": "Ctra.M512-Almojon", "lat": 40.50986994, "lng": -4.23767607, "feed": "mdb-2825"}, {"name": "Robledo De Chavela-M-512 6500", "lat": 40.51804891, "lng": -4.24600687, "feed": "mdb-2825"}, {"name": "Miguel Cervantes-Luis Gongora", "lat": 40.52080713, "lng": -4.25349543, "feed": "mdb-2825"}, {"name": "Navas-Arroyo", "lat": 40.52072061, "lng": -4.25561824, "feed": "mdb-2825"}, {"name": "Navas-Pinos", "lat": 40.51859609, "lng": -4.25961577, "feed": "mdb-2825"}, {"name": "Amistad-Av.Central", "lat": 40.51590147, "lng": -4.25974239, "feed": "mdb-2825"}, {"name": "Robledo De Chavela-Central 374", "lat": 40.51177961, "lng": -4.25178057, "feed": "mdb-2825"}, {"name": "Robledo De Chavela-Central 204", "lat": 40.50920703, "lng": -4.24563044, "feed": "mdb-2825"}, {"name": "Av.Virgende Navahonda-Canopus", "lat": 40.49547266, "lng": -4.23443771, "feed": "mdb-2825"}, {"name": "San Lorenzo Escorial-Pozas 183", "lat": 40.60231439, "lng": -4.12771286, "feed": "mdb-2825"}, {"name": "Escorial. El-Reyes Católicos16", "lat": 40.58929507, "lng": -4.1390855, "feed": "mdb-2825"}, {"name": "Escorial. El-Constitución 20", "lat": 40.58257771, "lng": -4.12962539, "feed": "mdb-2825"}, {"name": "Av.Constitucion-Alfonso Xiii", "lat": 40.58221102, "lng": -4.12283699, "feed": "mdb-2825"}, {"name": "Robledo De Chavela-M-512 9", "lat": 40.55869626, "lng": -4.19737651, "feed": "mdb-2825"}, {"name": "Ctra.M505-Puerto Cruz Verde", "lat": 40.55950184, "lng": -4.19630393, "feed": "mdb-2825"}, {"name": "Av.Constitucion-Fco.Valiño", "lat": 40.58268657, "lng": -4.12953257, "feed": "mdb-2825"}, {"name": "Escorial. El-Padre Wigfrido 1", "lat": 40.58954144, "lng": -4.13965674, "feed": "mdb-2825"}, {"name": "Juan De Toledo-Est.Autobuses", "lat": 40.59173358, "lng": -4.14377172, "feed": "mdb-2825"}, {"name": "Madrid - Puerta de Hierro 5600", "lat": 40.44933809, "lng": -3.73689835, "feed": "mdb-2825"}, {"name": "Rozas De Madrid. Las-Coruña", "lat": 40.4760597, "lng": -3.8384809, "feed": "mdb-2825"}, {"name": "Rozas De Madrid. Las-Escorial", "lat": 40.50385961, "lng": -3.90662907, "feed": "mdb-2825"}, {"name": "Rozas De Madrid. Las-Cami Real", "lat": 40.53045173, "lng": -3.94289157, "feed": "mdb-2825"}, {"name": "Rozas De Madrid. Las-Cami Real", "lat": 40.53122064, "lng": -3.94371377, "feed": "mdb-2825"}, {"name": "Rozas De Madrid. Las-Real 1", "lat": 40.5337067, "lng": -3.94252373, "feed": "mdb-2825"}, {"name": "Rozas De Madrid. Las-Real 6", "lat": 40.53747906, "lng": -3.94058141, "feed": "mdb-2825"}, {"name": "Rozas De Madrid. Las-Real 28", "lat": 40.53978063, "lng": -3.93563048, "feed": "mdb-2825"}, {"name": "Camino Real-Aguila Real", "lat": 40.53993017, "lng": -3.93270381, "feed": "mdb-2825"}, {"name": "Rozas De Madrid. Las-Gerifalte", "lat": 40.5446691, "lng": -3.92823531, "feed": "mdb-2825"}, {"name": "Rozas De Madrid. Las-Gerifalte", "lat": 40.54812117, "lng": -3.93132986, "feed": "mdb-2825"}, {"name": "Rozas De Madrid. Las-Gerifalte", "lat": 40.54434767, "lng": -3.93458369, "feed": "mdb-2825"}, {"name": "Rozas De Madrid. Las-Real 26", "lat": 40.5398024, "lng": -3.93629167, "feed": "mdb-2825"}, {"name": "Rozas De Madrid. Las-Real 6", "lat": 40.53753291, "lng": -3.94065303, "feed": "mdb-2825"}, {"name": "Rozas De Madrid. Las-Cami Real", "lat": 40.53142633, "lng": -3.94388222, "feed": "mdb-2825"}, {"name": "Rozas De Madrid. Las-Escorial", "lat": 40.52956536, "lng": -3.94333963, "feed": "mdb-2825"}, {"name": "Rozas De Madrid. Las-Escorial", "lat": 40.50354563, "lng": -3.90647151, "feed": "mdb-2825"}, {"name": "Madrid - Padre Huidobro 9700", "lat": 40.4628937, "lng": -3.77859994, "feed": "mdb-2825"},